Restaurant ID,Restaurant Name,Country Code,City,Address,Locality,Locality Verbose,Longitude,Latitude,Cuisines,Average Cost for two,Currency,Has Table booking,Has Online delivery,Price range,Aggregate rating,Votes
1,Papa Buns,1,New Delhi,"1st Floor, B, Hudson Lane, Delhi University-GTB Nagar, New Delhi",Delhi University-GTB Nagar,"Delhi University-GTB Nagar, New Delhi",77.2039851,28.6943776,Cafe,250,Indian Rupees(Rs.),No,No,1,0,1
2,Shamji Sweets,1,Gurgaon,"289/2, Old Delhi Road, Near Telephone Exchange, Sector 14, Gurgaon",Sector 14,"Sector 14, Gurgaon",77.0394496,28.4702133,"Mithai, South Indian, Chinese, Street Food, North Indian",600,Indian Rupees(Rs.),No,No,2,2.9,26
3,Handi Chhadeyan Di,1,Faridabad,"Shop 138, HUDA Market, Near HDFC Bank, Sector 16, Faridabad",Sector 16,"Sector 16, Faridabad",77.3185323,28.4106593,North Indian,400,Indian Rupees(Rs.),No,No,1,3.1,26
4,Snacks Bar,1,Faridabad,"Near Pristine Mall, Sector 31, Faridabad",Sector 31,"Sector 31, Faridabad",77.315795,28.4452616,Chinese,350,Indian Rupees(Rs.),No,No,1,2.9,4
5,Mairu's,1,Noida,"Shop 7A, Sethi Arcade, Sector 76, Near Sector 72, Noida",Sector 72,"Sector 72, Noida",77.3851512,28.5646289,"North Indian, Chinese, Fast Food",300,Indian Rupees(Rs.),No,No,1,0,2
6,Bikaner Sweets & Restaurant,1,New Delhi,"R-3, Rita Block, Main Market, Shakarpur, New Delhi Shakarpur",Shakarpur,"Shakarpur, New Delhi",77.282282,28.6328078,"Desserts, North Indian",250,Indian Rupees(Rs.),No,No,1,0,1
7,Green Chick Chop,1,New Delhi,"G-1 DDA Shopping Complex, New Rajdhani Enclave Market, Near Preet Vihar Metro station, Preet Vihar, New Delhi",Preet Vihar,"Preet Vihar, New Delhi",77.2956527,28.6427539,"Raw Meats, North Indian, Fast Food",350,Indian Rupees(Rs.),No,No,1,3,4
8,Cake O Frost,1,New Delhi,"Paschim Vihar, New Delhi",Paschim Vihar,"Paschim Vihar, New Delhi",77.090488,28.667271,Bakery,350,Indian Rupees(Rs.),No,No,1,3.3,14
9,Mulligan Cafe,1,New Delhi,"Press Enclave Marg, Lado Sarai, New Delhi",Lado Sarai,"Lado Sarai, New Delhi",0,0,"South Indian, Fast Food",300,Indian Rupees(Rs.),No,No,1,0,1
10,Gupta's Rasoi,1,New Delhi,"B-6, Commercial Market, Safdarjung Enclave, Safdarjung, New Delhi",Safdarjung,"Safdarjung, New Delhi",77.19629455,28.558874,North Indian,350,Indian Rupees(Rs.),No,Yes,1,2.8,60
11,Origin Coffee Roasting,189,Cape Town,"28 Hudson Street, De Waterkant, Cape Town",De Waterkant,"De Waterkant, Cape Town",18.41766667,-33.91733333,"Cafe, Bakery, Tea, Vegetarian",200,Rand(R),No,No,3,4,185
12,Handa's,1,New Delhi,"292, Near Radhu Palace Cinema, West Guru Angad Nagar, Laxmi Nagar, New Delhi",Laxmi Nagar,"Laxmi Nagar, New Delhi",77.2830396,28.6405769,"North Indian, Chinese",500,Indian Rupees(Rs.),No,Yes,2,2.6,8
13,The Lady & Sons,216,Savannah,"102 W Congress St, Savannah, GA 31401",Savannah,"Savannah, Savannah",-81.0954,32.0804,Southern,40,Dollar($),No,No,3,3.3,1201
14,Mochamania,1,Gurgaon,"106, The Laburnum Villa, Sushant Lok, Gurgaon",Sushant Lok,"Sushant Lok, Gurgaon",77.0747614,28.4710018,Bakery,300,Indian Rupees(Rs.),No,No,1,3.7,50
15,Bengali By Nature,1,Gurgaon,"Shop 1016, Maruti Vihar, Chakkarpur, MG Road, Gurgaon",MG Road,"MG Road, Gurgaon",77.0827529,28.4766191,"Fast Food, Chinese, Bengali",400,Indian Rupees(Rs.),No,Yes,1,3.3,38
16,Country Curries,1,New Delhi,"21, Savitri Cinema Complex, Greater Kailash (GK) 2, New Delhi",Greater Kailash (GK) 2,"Greater Kailash (GK) 2, New Delhi",77.24002328,28.54125928,"North Indian, Bengali",800,Indian Rupees(Rs.),No,Yes,2,3.5,139
17,Active Sushi,189,Cape Town,"32 Hudson Street, Mirage Building, Green Point, Cape Town",Green Point,"Green Point, Cape Town",18.417566,-33.917258,Sushi,250,Rand(R),No,No,3,3.8,127
18,Diggin,1,New Delhi,"Anand Lok Shopping Centre, Opposite Gargi College, Anand Lok, New Delhi",Anand Lok,"Anand Lok, New Delhi",77.2194983,28.5556355,"Italian, Continental, Cafe",1400,Indian Rupees(Rs.),Yes,Yes,3,4.2,2131
19,Ipshita's Cakes Mamma Bakes,1,New Delhi,"C7, Soami Nagar South, Panchsheel Park, New Delhi",Panchsheel Park,"Panchsheel Park, New Delhi",77.2260944,28.5420321,Bakery,700,Indian Rupees(Rs.),No,No,2,3.1,11
20,Old Moradabadi Chicken Corner,1,New Delhi,"B116, Opposite Metro Pillar 164, New Ashok Nagar, Vasundhara Enclave, New Delhi",Vasundhara Enclave,"Vasundhara Enclave, New Delhi",77.30620712,28.5890838,North Indian,400,Indian Rupees(Rs.),No,No,1,0,0
21,Al Bake,1,New Delhi,"22/2, PVR Anupam Complex, Community Centre, Saket, New Delhi",PVR Anupam Complex,"PVR Anupam Complex, New Delhi",77.2069673,28.5233797,"Lebanese, Chinese",500,Indian Rupees(Rs.),No,No,2,3.2,159
22,Giani,1,New Delhi,"G-5, Aggarwal Towers, I.P.Extension, Near Ajanta Apartments, Patparganj, New Delhi",Patparganj,"Patparganj, New Delhi",77.3080199,28.6280118,"Ice Cream, Desserts",400,Indian Rupees(Rs.),No,No,1,3.5,65
23,Fat Fish,1,Goa,"Agar Waddo, Calangute Arpora Road, Bardez, Baga, Goa",Baga,"Baga, Goa",73.76363333,15.55656111,"North Indian, Continental, Goan",1000,Indian Rupees(Rs.),No,No,4,4.2,856
24,Bikaner Sweets & Bakers,1,New Delhi,"Shop A1/1, West Jyoti Nagar, Durgapuri Chowk, Shahdara, New Delhi",Shahdara,"Shahdara, New Delhi",77.2919382,28.6895977,"Mithai, Fast Food",500,Indian Rupees(Rs.),No,No,2,0,2
25,Chin Mi,1,Kanpur,"Rave 3, Plot 11, Block 6 Parwati Bagla Road, Tilak Nagar, Kanpur","Rave 3, Tilak Nagar","Rave 3, Tilak Nagar, Kanpur",80.32779722,26.49210556,Chinese,1500,Indian Rupees(Rs.),No,No,4,3.9,86
26,BTW,1,New Delhi,"A-17, Tagore Market, Kirti Nagar, New Delhi",Kirti Nagar,"Kirti Nagar, New Delhi",77.1371133,28.6542971,"Street Food, South Indian, Mithai",400,Indian Rupees(Rs.),No,No,1,3.2,19
27,Wimpy,1,New Delhi,"31, Aurobindo Place Market, Hauz Khas, New Delhi",Hauz Khas,"Hauz Khas, New Delhi",77.2039227,28.5522405,"Fast Food, Burger",350,Indian Rupees(Rs.),No,No,1,2.6,220
28,Green Chick Chop,1,New Delhi,"G-18, Hudson Lane, Delhi University-GTB Nagar, New Delhi",Delhi University-GTB Nagar,"Delhi University-GTB Nagar, New Delhi",77.2040261,28.6949494,"Raw Meats, North Indian, Fast Food",350,Indian Rupees(Rs.),No,Yes,1,3.1,72
29,Taco Bell,1,Noida,"M-18, Food Court, 4th Floor, DLF Mall of India, Sector 18, Noida","DLF Mall of India, Sector 18,  Noida","DLF Mall of India, Sector 18,  Noida, Noida",77.32083656,28.56733177,"Mexican, Fast Food",550,Indian Rupees(Rs.),No,Yes,2,3.6,397
30,Yummi Kolkataa,1,New Delhi,"13, Market 1, Chittaranjan Park, New Delhi",Chittaranjan Park,"Chittaranjan Park, New Delhi",77.248847,28.5399215,Mithai,150,Indian Rupees(Rs.),No,No,1,3.2,17
31,Subway,1,Noida,"Shop 3, Supertech Shopprix Mall, Sector 61, Noida","Supertech Shopprix Mall, Sector 61","Supertech Shopprix Mall, Sector 61, Noida",77.36498103,28.59689799,"American, Fast Food, Salad, Healthy Food",500,Indian Rupees(Rs.),No,Yes,2,2.3,24
32,Culinaire,1,New Delhi,"Shop 2, Chandan Market, S Block, Greater Kailash (GK) 2, New Delhi",Greater Kailash (GK) 2,"Greater Kailash (GK) 2, New Delhi",77.2456868,28.5306722,"Chinese, Thai",1000,Indian Rupees(Rs.),No,Yes,3,3.8,843
33,AMPM Cafí© & Bar,1,New Delhi,"J 2/5, 3rd & 4th Floor, B.K. Dutt Market, Rajouri Garden, New Delhi",Rajouri Garden,"Rajouri Garden, New Delhi",77.1201223,28.6477737,"Continental, Italian, American",1400,Indian Rupees(Rs.),No,No,3,4.1,1980
34,Funduz Cafe,1,New Delhi,"WZ-188, Punjabi Market, Tilak Nagar, New Delhi",Tilak Nagar,"Tilak Nagar, New Delhi",77.1002905,28.6449182,Fast Food,300,Indian Rupees(Rs.),No,No,1,0,3
35,Domino's Pizza,1,New Delhi,"C-7, Malviya Nagar, New Delhi",Malviya Nagar,"Malviya Nagar, New Delhi",77.211528,28.5363241,"Pizza, Fast Food",700,Indian Rupees(Rs.),No,No,2,2.3,185
36,Kabbaba,1,New Delhi,"A2, Shop 9-12, JDS, DDA Community Center, Paschim Vihar, New Delhi",Paschim Vihar,"Paschim Vihar, New Delhi",77.10144192,28.67004128,"North Indian, Chinese, Fast Food",500,Indian Rupees(Rs.),No,Yes,2,3.3,31
37,Bakerz Lodge,1,New Delhi,"19 NWA, Club Road, Punjabi Bagh, New Delhi",Punjabi Bagh,"Punjabi Bagh, New Delhi",77.12192863,28.66666563,"Bakery, Desserts",250,Indian Rupees(Rs.),No,Yes,1,4.1,99
38,Heart Cup Coffee,1,Hyderabad,"B 7 & 8, Jubilee Garden, Behind TCS Building, E Park, Kondapur, Hyderabad",Kondapur,"Kondapur, Hyderabad",78.36885475,17.45970973,"Cafe, Continental, North Indian, Chinese",1800,Indian Rupees(Rs.),No,Yes,3,4.2,1859
39,The Chickmunks Express,1,Noida,"Sector 41, Noida",Sector 41,"Sector 41, Noida",77.360571,28.565447,"Fast Food, Italian, North Indian, Chinese",1300,Indian Rupees(Rs.),No,Yes,3,3,6
40,The Food Lab,1,Surat,"G-1 Western Vesu Point, Vesu, Surat",Vesu,"Vesu, Surat",72.77262915,21.14966885,"Italian, Lebanese, Mexican",900,Indian Rupees(Rs.),No,No,3,3.6,66
41,Punjabi Angeethi,1,New Delhi,"AL- 85, AL Market, Shalimar Bagh, New Delhi",Shalimar Bagh,"Shalimar Bagh, New Delhi",77.1616827,28.7033536,"North Indian, South Indian, Chinese",600,Indian Rupees(Rs.),No,Yes,2,3.2,28
42,Samrat Bakers,1,New Delhi,"Chowk Harikat Nagar, Kingsway Camps, Delhi University-GTB Nagar, New Delhi",Delhi University-GTB Nagar,"Delhi University-GTB Nagar, New Delhi",77.2075896,28.6984683,"Bakery, Fast Food",200,Indian Rupees(Rs.),No,No,1,2.6,16
43,HotPlate,1,New Delhi,"Vasant Apartments, Vasant Vihar, New Delhi",Vasant Vihar,"Vasant Vihar, New Delhi",0,0,"Fast Food, North Indian",150,Indian Rupees(Rs.),No,No,1,3.1,8
44,Gurgaon Mughlai Chicken,1,Gurgaon,"Rajiv Nagar, Near Apple Hospital, Sector 14, Gurgaon",Sector 14,"Sector 14, Gurgaon",77.0351435,28.4771621,"North Indian, Mughlai",350,Indian Rupees(Rs.),No,No,1,0,2
45,Babu Bhai Kabab Wale,1,New Delhi,"1465 B,Near Masjid Sayed Rafai, Chitli Qabar, Jama Masjid, New Delhi",Jama Masjid,"Jama Masjid, New Delhi",77.2339142,28.6472969,Mughlai,200,Indian Rupees(Rs.),No,No,1,3.4,12
46,Roti Aur Boti,1,New Delhi,"9, DDA Complex, Jail Road, New Delhi",Jail Road,"Jail Road, New Delhi",77.097836,28.6313278,Fast Food,100,Indian Rupees(Rs.),No,No,1,3.2,38
47,PiccoLicko,1,Gurgaon,"Plot 74, Sector 18, Near IFFCO Chowk, Udyog Vihar, Gurgaon",Udyog Vihar,"Udyog Vihar, Gurgaon",77.0652612,28.4875966,Desserts,200,Indian Rupees(Rs.),No,Yes,1,3.3,12
48,Cheffron Bakery,1,New Delhi,"B-26, Gopal Nagar, Main Dhansa Road, Najafgarh, New Delhi",Najafgarh,"Najafgarh, New Delhi",76.9718366,28.6103695,Bakery,250,Indian Rupees(Rs.),No,No,1,0,2
49,Barbeque Nation,1,Kolkata,"24, 1st Floor, Park Center Building, Park Street Area, Kolkata",Park Street Area,"Park Street Area, Kolkata",88.35412715,22.55108374,"North Indian, Chinese",1600,Indian Rupees(Rs.),No,No,3,4.9,1753
50,Jonathan's Kitchen - Holiday Inn Express & Suites,1,Hyderabad,"Holiday Inn Express & Suites, Gachibowli, Hyderabad",Holiday Inn Express & Suites,"Holiday Inn Express & Suites, Hyderabad",78.3475536,17.424114,"North Indian, Japanese, Italian",1900,Indian Rupees(Rs.),Yes,No,3,4.3,860
51,Sagar Bakery,1,Faridabad,"938, 7-10 Chowk, YMCA Road, Sector 10, Faridabad",Sector 10,"Sector 10, Faridabad",77.3270132,28.3692291,Bakery,150,Indian Rupees(Rs.),No,No,1,3,11
52,Laxmi Ice Cream,1,New Delhi,"H2, Hudson Line, Kingsway Camp, Delhi University-GTB Nagar, New Delhi",Delhi University-GTB Nagar,"Delhi University-GTB Nagar, New Delhi",77.2044507,28.6968859,"Ice Cream, Desserts",150,Indian Rupees(Rs.),No,No,1,3.7,93
53,Barbeque Ville,1,Pune,"257, Green Valley, Near Mankar Chowk, Kaspate Vasti, Wakad, Pune",Wakad,"Wakad, Pune",73.7735722,18.5927182,North Indian,1000,Indian Rupees(Rs.),Yes,No,3,4.4,208
54,Bintang Sweet Thrills,1,New Delhi,"Shop 1, 176-A,  LIG Flats, Rajouri Garden, New Delhi",Rajouri Garden,"Rajouri Garden, New Delhi",77.11487744,28.6393819,"Desserts, Ice Cream",200,Indian Rupees(Rs.),No,No,1,3.5,21
55,Copper Restro Bar,1,New Delhi,"F-37, Central Market, Kirti Nagar, New Delhi",Kirti Nagar,"Kirti Nagar, New Delhi",77.1423902,28.6529002,"North Indian, Chinese, Continental",1200,Indian Rupees(Rs.),Yes,No,3,2.8,15
56,Cheenos,1,Noida,"P-11, 2nd & 3rd Floor, Above Sony Centre, Sector 18, Noida",Sector 18,"Sector 18, Noida",77.32454438,28.56857349,"American, Italian",1500,Indian Rupees(Rs.),Yes,No,3,2.6,521
57,Pindi,1,New Delhi,"16, Pandara Road Market, New Delhi",Pandara Road Market,"Pandara Road Market, New Delhi",77.2300185,28.6079765,"North Indian, Mughlai, Chinese",1700,Indian Rupees(Rs.),Yes,Yes,3,3.8,337
58,Kamdhenu Family Corner,1,New Delhi,"5469, Opposite Town Hall, Chandni Chowk, New Delhi",Chandni Chowk,"Chandni Chowk, New Delhi",77.2271781,28.6563302,"North Indian, South Indian",300,Indian Rupees(Rs.),No,No,1,2.8,4
59,Shenanigan's Irish Pub,216,Gainesville,"87 N. Chestatee St., Dahlonega, GA 30533",Dahlonega,"Dahlonega, Gainesville",-83.986119,34.533198,"Bar Food, Seafood, Vegetarian",25,Dollar($),No,No,2,4.1,171
60,Mocha,1,Lucknow,"CP-1, 2nd Floor, Anand Plaza, Viram Khand-1, Near Patrakarpuram Crossing, Gomti Nagar, Lucknow",Gomti Nagar,"Gomti Nagar, Lucknow",81.0011849,26.8528099,"Cafe, Italian, Continental",800,Indian Rupees(Rs.),No,No,3,4.6,567
61,Malik Vegetarian Rasoi,1,New Delhi,"13-A/4, Ward 1, Opposite Bhool Bhuliyan, Mehrauli, New Delhi",Mehrauli,"Mehrauli, New Delhi",77.1818906,28.5227376,North Indian,250,Indian Rupees(Rs.),No,No,1,2.9,9
62,Pandey Ji Restaurant,1,New Delhi,"F-226, Katwaria Sarai, Qutab Institutional Area, New Delhi",Qutab Institutional Area,"Qutab Institutional Area, New Delhi",77.18608741,28.54186954,"North Indian, Chinese",150,Indian Rupees(Rs.),No,No,1,0,0
63,Cervantes,30,Rio de Janeiro,"Avenida Prado Junior, 335 B, Copacabana, Rio de Janeiro",Copacabana,"Copacabana, Rio de Janeiro",-43.17583333,-22.96216667,"Beverages, Bar Food, Fast Food",90,Brazilian Real(R$),No,No,3,4.5,29
64,Shagun,1,New Delhi,"F-16, Opposite NDPL Office, Vijay Nagar, New Delhi",Vijay Nagar,"Vijay Nagar, New Delhi",77.2047215,28.6934181,"Chinese, Thai, Tibetan, Japanese",800,Indian Rupees(Rs.),No,Yes,2,3.9,419
65,Sconyers Bar B Que,216,Augusta,"2250 Sconyers Way, Augusta, GA 30906",Augusta,"Augusta, Augusta",-82.0327,33.4086,BBQ,25,Dollar($),No,No,2,3.5,304
66,Krishna Panjabi Rasoi,1,New Delhi,"10/10, Yadav Park, Najafgarh Road, Nangloi, New Delhi",Nangloi,"Nangloi, New Delhi",77.06082389,28.6743958,North Indian,100,Indian Rupees(Rs.),No,No,1,0,1
67,El Cartel,215,Edinburgh,"64 Thistle Street, New Town, Edinburgh EH2 1EN",New Town,"New Town, Edinburgh",-3.199521,55.95404,Mexican,30,Pounds(Œ£),No,No,3,3.8,31
68,Pizza Day,1,New Delhi,"Ram Chowk, Main Market, Palam Colony, Palam, New Delhi",Palam,"Palam, New Delhi",77.0909455,28.5871261,"Pizza, Fast Food",500,Indian Rupees(Rs.),No,Yes,2,0,2
69,Chor Bizarre,1,New Delhi,"Bikaner House, Pandara Road Market, New Delhi",Pandara Road Market,"Pandara Road Market, New Delhi",77.2305318,28.6081696,North Indian,1600,Indian Rupees(Rs.),Yes,No,3,4.4,64
70,Aalis Kathi Kabab,1,New Delhi,"Shop 4, Panchsheel Enclave Market, Panchsheel Park, New Delhi",Panchsheel Park,"Panchsheel Park, New Delhi",77.2300888,28.5438243,"Fast Food, North Indian",400,Indian Rupees(Rs.),No,No,1,3.3,46
71,Foodieholic,1,New Delhi,"F-154, Katwaria Saria, Qutab Institutional Area, New Delhi",Qutab Institutional Area,"Qutab Institutional Area, New Delhi",77.18569312,28.54150757,"Chinese, North Indian, South Indian",200,Indian Rupees(Rs.),No,No,1,0,0
72,Wangchuk's Ladakhi Kitchen,1,Gurgaon,"2nd Floor, Jalsa Building, Opposite Arjun Marg, Golf Course Road, Gurgaon",Golf Course Road,"Golf Course Road, Gurgaon",77.0940831,28.4663219,"Tibetan, Nepalese",850,Indian Rupees(Rs.),No,Yes,2,3.6,241
73,Cherry Comet,1,Gurgaon,"K-5/A, Near Building 8-B Entrance, Cyber hub, DLF Cyber City, Gurgaon","Cyber Hub, DLF Cyber City","Cyber Hub, DLF Cyber City, Gurgaon",77.0888677,28.4953148,"Ice Cream, Desserts",400,Indian Rupees(Rs.),No,Yes,1,3.6,455
74,Yadav Ji Chholey Bhature,1,New Delhi,"Main Road, Mahavir Enclave, Part 3, Palam, New Delhi",Palam,"Palam, New Delhi",77.0686475,28.6062929,Street Food,50,Indian Rupees(Rs.),No,No,1,0,1
75,Shri Gupta'z,1,New Delhi,"6, DSIDC Market, Scheme 3, Okhla Industrial Area, Okhla Phase 2, New Delhi",Okhla Phase 2,"Okhla Phase 2, New Delhi",77.2806012,28.5370818,"Mughlai, North Indian, Chinese",500,Indian Rupees(Rs.),No,No,2,3.2,18
76,The First Floor,1,New Delhi,"Building 58, 1st Floor, Sahyog Bhavan, Nehru Place, New Delhi",Nehru Place,"Nehru Place, New Delhi",77.2526836,28.5487963,"North Indian, Chinese",1000,Indian Rupees(Rs.),Yes,Yes,3,3.1,14
77,Govinda,1,New Delhi,"E-196B, Krishna Market, Lajpat Nagar 1, New Delhi",Lajpat Nagar 1,"Lajpat Nagar 1, New Delhi",77.2430561,28.5751889,Street Food,100,Indian Rupees(Rs.),No,No,1,0,1
78,Aap Ki Rasoi Ghar,1,New Delhi,"Shop 1, 16/21, Subhash Nagar, New Delhi",Subhash Nagar,"Subhash Nagar, New Delhi",77.119028,28.6344547,"North Indian, Fast Food",250,Indian Rupees(Rs.),No,No,1,3,6
79,Madras Coffee House,1,Noida,"Ground Floor, Amenity Block, Unitech Infospace, Sector 135, Near Sector 132, Noida",Sector 132,"Sector 132, Noida",77.4043548,28.4990685,Beverages,100,Indian Rupees(Rs.),No,No,1,0,1
80,Razzmatazz,1,Dehradun,"5, Pritam Road, Dalanwala, Near Race Course, Dehradun",Race Course,"Race Course, Dehradun",0,0,Cafe,400,Indian Rupees(Rs.),No,No,2,3.9,39
81,Palmshore,1,Chennai,"Plot 8, Park Dugar, Mount Poonamallee High Road, Ramapuram, Chennai",Ramapuram,"Ramapuram, Chennai",80.17456822,13.02627908,"North Indian, Mughlai, Chinese, South Indian",850,Indian Rupees(Rs.),Yes,Yes,2,4.4,645
82,Beijing Cafe,216,Valdosta,"1715 C Norman Drive, Valdosta, GA 31601",Valdosta,"Valdosta, Valdosta",-83.318554,30.841892,"Asian, Chinese, Thai",35,Dollar($),No,No,3,3.8,185
83,Bade Bhai Ka Brothers' Dhaba,1,Amritsar,"Near Amritsar Municipal Corporation, Town Hall, Amritsar",Town Hall,"Town Hall, Amritsar",74.87461944,31.62394722,"North Indian, Fast Food",500,Indian Rupees(Rs.),No,No,2,3.7,94
84,Tikka Express meets Chennai Express,1,Noida,"Shop UG 15-16, Amrapali Zodiac Society, Sector 120, Near Sector 72, Noida",Sector 72,"Sector 72, Noida",77.3992328,28.585231,"Fast Food, North Indian, South Indian",400,Indian Rupees(Rs.),No,No,1,0,1
85,Hangout Cafe,1,Gurgaon,"16 C, Opposite Lady of Fatima Convent School, New Colony, Old Railway Road, Gurgaon",Old Railway Road,"Old Railway Road, Gurgaon",77.0196893,28.4653555,"Fast Food, Chinese",200,Indian Rupees(Rs.),No,Yes,1,3.4,27
86,Pakwan,1,New Delhi,"Shalimar Hotel, A-160, Road 4, Mahipalpur Extension, Mahipalpur, New Delhi",Mahipalpur,"Mahipalpur, New Delhi",77.12881389,28.54953611,"North Indian, Chinese, Fast Food",500,Indian Rupees(Rs.),No,No,2,0,1
87,Cafe Coffee Day,1,New Delhi,"K-1/14, Main Road, Chittaranjan Park, New Delhi",Chittaranjan Park,"Chittaranjan Park, New Delhi",77.2530302,28.5393728,Cafe,450,Indian Rupees(Rs.),No,No,1,0,1
88,India Restaurant,1,Kolkata,"Ground Floor, 1st Floor, 2nd Floor, 34, Karl Marx Sarani, Kidderpore, Kolkata",Kidderpore,"Kidderpore, Kolkata",88.3223365,22.5389989,"Biryani, North Indian, Chinese, Mughlai",800,Indian Rupees(Rs.),Yes,Yes,2,4.6,1219
89,Lahori Food,1,New Delhi,"Matia Mahal Road, Opposite Gate 1, Jama Masjid, New Delhi",Jama Masjid,"Jama Masjid, New Delhi",77.2333916,28.6493023,North Indian,400,Indian Rupees(Rs.),No,No,1,0,0
90,Jain Dhaba,1,New Delhi,"412/C, Jheel Kuranja, Opposite 310 Bus Stop, Krishna Nagar, New Delhi",Krishna Nagar,"Krishna Nagar, New Delhi",77.2723274,28.6589025,North Indian,400,Indian Rupees(Rs.),No,No,1,3.2,30
91,Zayka Delhi-6,1,New Delhi,"Shop 3, Subhash Nagar Bike Market, Ajanta Cinema, Ajay Enclave, Subhash Nagar, New Delhi",Subhash Nagar,"Subhash Nagar, New Delhi",77.1076479,28.6389889,"North Indian, Mughlai",600,Indian Rupees(Rs.),No,No,2,3.1,11
92,GreeNox,1,Noida,"A Block, The Corenthum Office Complex, Sector 62, Noida",Sector 62,"Sector 62, Noida",77.37371799,28.62667926,"Fast Food, Beverages",200,Indian Rupees(Rs.),No,Yes,1,3.4,16
93,Momoholic,1,New Delhi,"Shop 13, Plot 25, Parmesh Corporate Tower, Karkardooma Community Centre Tower, Karkardooma, New Delhi",Karkardooma,"Karkardooma, New Delhi",0,0,"Chinese, Fast Food, Ice Cream",200,Indian Rupees(Rs.),No,No,1,3.3,11
94,Zai,1,New Delhi,"Building 3, Local Shopping Complex, Masjid Moth, Greater Kailash (GK) 2, New Delhi",Greater Kailash (GK) 2,"Greater Kailash (GK) 2, New Delhi",77.2386784,28.5370786,"North Indian, Continental, Chinese",1550,Indian Rupees(Rs.),Yes,Yes,3,3.8,302
95,Bablu Fast Food,1,Gurgaon,"Shop 5, Opposite Oriental Club, Sector 18, Near Sector 17, Gurgaon",Sector 17,"Sector 17, Gurgaon",77.0633149,28.4978576,Chinese,300,Indian Rupees(Rs.),No,No,1,0,0
96,Bansiwala Sweets & Caterers,1,New Delhi,"Near Metro Pillar 629, Rohtak Road, Mundka, Nangloi, New Delhi",Nangloi,"Nangloi, New Delhi",77.02933475,28.68263808,"Mithai, Street Food",100,Indian Rupees(Rs.),No,No,1,0,0
97,Southy,1,New Delhi,"88/4, Adchini, New Delhi",Adchini,"Adchini, New Delhi",77.19795015,28.53747419,South Indian,450,Indian Rupees(Rs.),No,Yes,1,2.6,113
98,Bombay Brasserie,1,Chennai,"3, College Lane, Nungambakkam, Chennai",Nungambakkam,"Nungambakkam, Chennai",80.251865,13.066762,North Indian,1200,Indian Rupees(Rs.),Yes,Yes,3,4.6,1753
99,Chaska By Taste,1,Noida,"Village Shadra Bansal Market, Near Pass Taira, Sector 132, Noida",Sector 132,"Sector 132, Noida",77.4132229,28.5070787,"North Indian, Chinese",600,Indian Rupees(Rs.),No,No,2,2.9,4
100,Tea'se Me - Rooftop Tea Boutique,1,Agra,"Near Purani Mandi Crossing,Fatehabad Road, Tajganj, Agra",Tajganj,"Tajganj, Agra",0,0,"Chinese, Italian, Continental, North Indian",1000,Indian Rupees(Rs.),No,No,3,4.2,166
101,Butterburrs,216,Pocatello,"917 Yellowstone Avenue, Pocatello, ID 83201",Pocatello,"Pocatello, Pocatello",-112.4516,42.8919,"American, Breakfast",30,Dollar($),No,No,3,3.6,121
102,Carpedium,1,Gurgaon,"Shop 94, Huda Market, Sector 14, Gurgaon",Sector 14,"Sector 14, Gurgaon",77.0475174,28.474015,"Bakery, Desserts",200,Indian Rupees(Rs.),No,No,1,3.1,7
103,Shri Bankey Bihari Samosa Wala,1,New Delhi,"3177, Sangatrashan, Paharganj, New Delhi",Paharganj,"Paharganj, New Delhi",0,0,Street Food,100,Indian Rupees(Rs.),No,No,1,3.1,5
104,Carbon Bistro,189,Pretoria,"279 Dey Street, Brooklyn, Pretoria",Brooklyn,"Brooklyn, Pretoria",28.230606,-25.772304,"Burger, Steak, Seafood",360,Rand(R),No,No,4,4.1,84
105,Raj Rasoi,1,New Delhi,"9, Roshan Garden, Najafgarh, New Delhi",Najafgarh,"Najafgarh, New Delhi",76.9910765,28.6127374,North Indian,150,Indian Rupees(Rs.),No,No,1,0,2
106,Tyre Patty,1,Bhubaneshwar,"3rd Floor, BMC Bhawani Mall, Sahid Nagar, Bhubaneshwar","BMC Bhawani Mall, Sahid Nagar","BMC Bhawani Mall, Sahid Nagar, Bhubaneshwar",0,0,Cafe,500,Indian Rupees(Rs.),No,No,2,3.9,289
107,Tandoori Nature,1,New Delhi,"22, Samman Bazar, Bhogal, Jangpura, New Delhi",Jangpura,"Jangpura, New Delhi",77.2479992,28.5832431,North Indian,400,Indian Rupees(Rs.),No,No,1,0,0
108,Konetto Pizza,1,Gurgaon,"Shop 7, Opposite Vishal Mega Mart, Next to Citikart, Old Delhi-Gurgaon Road, Sector 14, Gurgaon",Sector 14,"Sector 14, Gurgaon",77.0462096,28.4783985,Pizza,150,Indian Rupees(Rs.),No,No,1,3.5,32
109,Shanu's Chicken Planet,1,New Delhi,"1, Block C8, DDA Market, Keshav Puram, Lawrence Road, New Delhi",Lawrence Road,"Lawrence Road, New Delhi",77.16032244,28.69054589,"North Indian, Mughlai, Chinese, Italian",450,Indian Rupees(Rs.),No,No,1,3.2,11
110,The Refinery,216,Tampa Bay,"5137 N. Florida Ave., Tampa, FL 33603",Seminole Heights,"Seminole Heights, Tampa Bay",-82.459339,27.99384,"Seafood, Steak",40,Dollar($),No,No,3,4,875
111,Cafe Coffee Day,1,Gurgaon,"Unitech Infospace, Sector 21, Gurgaon","Unitech Infospace, Sector 21, Gurgaon","Unitech Infospace, Sector 21, Gurgaon, Gurgaon",77.0715115,28.509779,Cafe,450,Indian Rupees(Rs.),No,No,1,3.1,10
112,Gupta Fast Food,1,New Delhi,"446, Leela Ram Market, Masjid Moth, NDSE II, South Extension 2, New Delhi",South Extension 2,"South Extension 2, New Delhi",77.21914127,28.5642885,"North Indian, Chinese",600,Indian Rupees(Rs.),No,No,2,3.4,29
113,Starvin' Marvin,1,New Delhi,"Jasola, New Delhi",Jasola,"Jasola, New Delhi",77.2978344,28.5436226,"Italian, Mexican, Lebanese, Continental",600,Indian Rupees(Rs.),No,Yes,2,3.8,170
114,Giani's di Hatti,1,New Delhi,"651/52, Church Mission Road, Fatehpuri, Chandni Chowk, New Delhi",Chandni Chowk,"Chandni Chowk, New Delhi",77.2233575,28.6579744,"Ice Cream, Mithai, North Indian, Street Food",150,Indian Rupees(Rs.),No,No,1,4.3,521
115,KB's Kulfi & Icecream,1,Gurgaon,"1, Opposite Allahabad Bank, Sector 7 Chowk, Sector 7, Gurgaon",Sector 7,"Sector 7, Gurgaon",77.0184147,28.4726717,Ice Cream,200,Indian Rupees(Rs.),No,Yes,1,2.8,11
116,Lal Dhaba,1,New Delhi,"Plot B3, Kotla Road, ITO, New Delhi",ITO,"ITO, New Delhi",0,0,North Indian,200,Indian Rupees(Rs.),No,No,1,3.1,10
117,Sandpiper Restaurant & Lounge,216,Pocatello,"1400 Bench Rd, Pocatello, ID 83201",Pocatello,"Pocatello, Pocatello",-112.432,42.9012,"American, Seafood, Steak",40,Dollar($),No,No,3,3.6,85
118,Tirupati Vrindavan,1,New Delhi,"34, 1st Floor, M Block Market, Greater Kailash (GK) 1, New Delhi",Greater Kailash (GK) 1,"Greater Kailash (GK) 1, New Delhi",77.2365188,28.5496806,South Indian,500,Indian Rupees(Rs.),No,No,2,3.7,53
119,Da Pizza Corner,1,New Delhi,"42, Near Sub Station, Mahipalpur, New Delhi",Mahipalpur,"Mahipalpur, New Delhi",77.1281574,28.5452469,"Fast Food, Pizza",600,Indian Rupees(Rs.),No,Yes,2,2.5,6
120,Chaat Chowk,1,Gurgaon,"SF-44, 1st Floor, DLF Galleria Market, DLF Phase 4, Gurgaon","DLF Galleria, DLF Phase 4","DLF Galleria, DLF Phase 4, Gurgaon",77.0821234,28.4670558,Street Food,350,Indian Rupees(Rs.),No,Yes,1,3.7,217
121,China Kitchen - Hyatt Regency,1,New Delhi,"Hyatt Regency, Bhikaji Cama Place, New Delhi","Hyatt Regency, Bhikaji Cama Place","Hyatt Regency, Bhikaji Cama Place, New Delhi",77.185331,28.56904,Chinese,4500,Indian Rupees(Rs.),Yes,No,4,4,424
122,Bernardo's,1,Gurgaon,"A-237, Supermart 1, DLF Phase 4, Gurgaon","Supermart 1, DLF Phase 4","Supermart 1, DLF Phase 4, Gurgaon",77.087339,28.4626259,Goan,2000,Indian Rupees(Rs.),Yes,Yes,4,4,429
123,Lazeez Rasoi,1,New Delhi,"Saria Nath Market, Sabji Mandi, Narela, New Delhi",Narela,"Narela, New Delhi",77.08952788,28.85517216,"Chinese, North Indian",300,Indian Rupees(Rs.),No,No,1,0,0
124,Jaisons,1,New Delhi,"118/14, Gurukul Road, Gautam Nagar, Hauz Khas, New Delhi",Hauz Khas,"Hauz Khas, New Delhi",0,0,"Fast Food, Street Food",150,Indian Rupees(Rs.),No,No,1,0,1
125,Katis Restaurant,214,Sharjah,"Opposite Safeer Market, Al Khan Street, Al Khan, Sharjah",Al Khan,"Al Khan, Sharjah",55.37637066,25.32578908,"Indian, North Indian, Chinese",65,Emirati Diram(AED),No,No,3,4.3,316
126,Jalapenos,1,Dehradun,"Mussourie Diversion, Pacific Hills,Rajpur Road, Rajpur, Dehradun",Rajpur,"Rajpur, Dehradun",78.07715102,30.37220198,"Cafe, Mexican",500,Indian Rupees(Rs.),No,No,3,4.2,68
127,Punjabi By Nature Express,1,New Delhi,"3rd Floor, Food Court, Ambience Mall, Vasant Kunj, New Delhi","Ambience Mall, Vasant Kunj","Ambience Mall, Vasant Kunj, New Delhi",77.155099,28.5411702,"North Indian, Street Food, Mughlai",600,Indian Rupees(Rs.),No,No,2,3.5,206
128,Sugar & Spice - Le Marche,1,Gurgaon,"SG-84 & 85, DLF Galleria, DLF Phase 4, Gurgaon","DLF Galleria, DLF Phase 4","DLF Galleria, DLF Phase 4, Gurgaon",77.0812241,28.4671487,"Bakery, Fast Food",800,Indian Rupees(Rs.),No,No,2,2.4,88
129,La Pino'z Pizza,1,Gurgaon,"94-D, Opposite Vatika Towers, Sector-53, Main Golf Course Road, Gurgaon",Golf Course Road,"Golf Course Road, Gurgaon",77.10288294,28.43849033,"Pizza, Mexican, Chinese, Italian",1000,Indian Rupees(Rs.),Yes,Yes,3,4,259
130,All Things Yummy,1,New Delhi,"2nd Floor, C Block, South Extension 2, New Delhi  Delhi",South Extension 2,"South Extension 2, New Delhi",77.219739,28.566755,"Bakery, Desserts",350,Indian Rupees(Rs.),No,Yes,1,3.8,68
131,The Big Scoop,1,Noida,"B 103, Near B Block Park, Sector 31, Noida",Sector 31,"Sector 31, Noida",77.347652,28.5744592,Ice Cream,250,Indian Rupees(Rs.),No,No,1,0,0
132,DCK- Dana Choga's Kitchen,1,New Delhi,"E-2/4, Main Road, Malviya Nagar, New Delhi",Malviya Nagar,"Malviya Nagar, New Delhi",77.2090133,28.5338079,"North Indian, Mughlai",800,Indian Rupees(Rs.),No,Yes,2,3.4,297
133,Curzon - The Royal Bar,1,New Delhi,"19, Ansari Road, Ring Road, MGM Club, Daryaganj, New Delhi","MGM Club, Daryaganj","MGM Club, Daryaganj, New Delhi",77.2430748,28.6464675,Finger Food,1000,Indian Rupees(Rs.),Yes,No,3,0,0
134,Backstreet Kitchen,1,Noida,"12-A, Near Community Centre, Sector 104, Near, Sector 110, Noida",Sector 110,"Sector 110, Noida",77.36520298,28.53920932,"North Indian, Mughlai, Chinese",500,Indian Rupees(Rs.),No,Yes,2,3.4,33
135,Fig & Maple,1,New Delhi,"M-27, Greater Kailash (GK) 2, New Delhi",Greater Kailash (GK) 2,"Greater Kailash (GK) 2, New Delhi",77.2418472,28.5332835,"Continental, Italian",1650,Indian Rupees(Rs.),Yes,No,3,3.8,42
136,Pizza Man,1,Gurgaon,"Opposite Sector 7, Huda Market, Old Railway Road, Gurgaon",Old Railway Road,"Old Railway Road, Gurgaon",77.0186408,28.4721483,"Pizza, Fast Food",400,Indian Rupees(Rs.),No,No,1,2.9,8
137,Mitran Da Junction,1,Gurgaon,"Shop 57, Near Subway Market, Sector 31, Gurgaon",Sector 31,"Sector 31, Gurgaon",77.051332,28.4540489,North Indian,500,Indian Rupees(Rs.),No,No,2,2.7,7
138,Rooftop Restaurant,1,New Delhi,"B-4, House 76, Majnu ka Tila, New Delhi",Majnu ka Tila,"Majnu ka Tila, New Delhi",77.227723,28.7003556,Chinese,450,Indian Rupees(Rs.),No,No,1,0,3
139,Town Table Restaurant,1,Dehradun,"101, Rajpur Road, Hathibarkala Salwala, Dehradun",Hathibarkala Salwala,"Hathibarkala Salwala, Dehradun",78.060221,30.340722,"North Indian, Chinese, Continental",1000,Indian Rupees(Rs.),No,No,4,3.9,173
140,Tea Lounge - Eros Hotel,1,New Delhi,"Eros Hotel, American Plaza, Nehru Place, New Delhi","Eros Hotel, Nehru Place","Eros Hotel, Nehru Place, New Delhi",77.2495406,28.5499322,Cafe,1800,Indian Rupees(Rs.),No,No,3,3.3,21
141,Lounge Bakery,1,New Delhi,"Goyala Road, Shyam Vihar Phase 2, Najafgarh, New Delhi",Najafgarh,"Najafgarh, New Delhi",77.0006609,28.5910291,Bakery,400,Indian Rupees(Rs.),No,No,1,0,0
142,Amritsari Lassi Wala,1,New Delhi,"Shop 295, Fatehpuri Chowk, Chandni Chowk, New Delhi",Chandni Chowk,"Chandni Chowk, New Delhi",77.2234007,28.6567084,Beverages,100,Indian Rupees(Rs.),No,No,1,3.8,112
143,Sree Krishna Udupi,1,New Delhi,"G-1, RG Complex 2, Prashant Vihar, New Delhi",Prashant Vihar,"Prashant Vihar, New Delhi",77.1350789,28.7153016,"South Indian, North Indian",250,Indian Rupees(Rs.),No,No,1,0,1
144,Polka Pastry & Snack Bar,1,New Delhi,"2-A, Yellow Flats, Rajouri Garden, New Delhi",Rajouri Garden,"Rajouri Garden, New Delhi",77.1166967,28.6395812,"Bakery, Fast Food",350,Indian Rupees(Rs.),No,Yes,1,3.4,33
145,Tibet Kujing,1,New Delhi,"165, Block C, Ground Floor, Gandhi Vihar, Mukherjee Nagar, New Delhi",Mukherjee Nagar,"Mukherjee Nagar, New Delhi",77.2120877,28.7054069,"Chinese, Tibetan",400,Indian Rupees(Rs.),No,No,1,2.9,11
146,Chy - Na Express,1,Gurgaon,"Shop 104, HUDA Market, Sector 56, Gurgaon",Sector 56,"Sector 56, Gurgaon",77.0990285,28.4249219,Chinese,400,Indian Rupees(Rs.),No,Yes,1,2.2,46
147,Pinkom's Bar-Be-Que,1,New Delhi,"15/449, DDA Flats, Near DDA Central Market, Kalkaji, New Delhi",Kalkaji,"Kalkaji, New Delhi",77.2568858,28.5309441,"North Indian, Mughlai",350,Indian Rupees(Rs.),No,No,1,3.2,12
148,Cake Point,1,Gurgaon,"S-27/9 H, DLF Phase 3, Gurgaon",DLF Phase 3,"DLF Phase 3, Gurgaon",77.1038389,28.487654,"Bakery, Desserts",600,Indian Rupees(Rs.),No,Yes,2,3,35
149,Tales & Spirits,1,Pune,"Plot 64, Shivaji Housing Society, Senapati Bapat Road, Pune",Senapati Bapat Road,"Senapati Bapat Road, Pune",73.8289719,18.5309626,"Italian, Continental, Cafe",800,Indian Rupees(Rs.),Yes,Yes,2,4.1,997
150,Hotel New Tamil Nadu,1,New Delhi,"9, Bir Tikenderjith Marg, Chanakyapuri, New Delhi",Chanakyapuri,"Chanakyapuri, New Delhi",77.1908861,28.5830663,"South Indian, North Indian, Chinese",300,Indian Rupees(Rs.),No,No,1,0,1
151,Ved Dhaba,1,New Delhi,"5307, Shree Ram Bhavan, Chandrawal Road, Kamla Nagar, New Delhi",Kamla Nagar,"Kamla Nagar, New Delhi",77.2054401,28.6777235,North Indian,300,Indian Rupees(Rs.),No,No,1,3.5,97
152,Ashok & Ashok Meat Dhaba,1,New Delhi,"Shop 2, Ring Road, Sarojini Nagar, New Delhi",Sarojini Nagar,"Sarojini Nagar, New Delhi",77.1936317,28.5694278,North Indian,650,Indian Rupees(Rs.),No,Yes,2,3.2,11
153,Nowhere Terrace Brewpub Cafe,1,Gurgaon,"2nd Floor, Cross Point Mall, Galleria Market DLF Phase 4, Gurgaon","Cross Point Mall, DLF Phase 4","Cross Point Mall, DLF Phase 4, Gurgaon",77.083048,28.468314,"Continental, European, Asian, North Indian, Chinese, Italian",1600,Indian Rupees(Rs.),Yes,No,3,4.1,214
154,DEL - Roseate House,1,New Delhi,"Roseate House, Asset 10, Hospitality District, Aerocity, New Delhi","Roseate House, Aerocity","Roseate House, Aerocity, New Delhi",77.120533,28.550802,"Continental, American, North Indian",3000,Indian Rupees(Rs.),Yes,No,4,3.6,30
155,Keventers,1,New Delhi,"Shop 15, Community Centre, New Friends Colony, New Delhi",New Friends Colony,"New Friends Colony, New Delhi",77.2683973,28.5613147,Beverages,400,Indian Rupees(Rs.),No,Yes,1,3.3,13
156,Out Of The Box,1,New Delhi,"5, Khan Market, New Delhi",Khan Market,"Khan Market, New Delhi",77.2261901,28.5998768,"North Indian, Lebanese, Mexican, Asian, Italian, American, European",1550,Indian Rupees(Rs.),Yes,No,3,4,1203
157,Mikky Restaurant,1,New Delhi,"2-3, Ram Nagar Market, Paharganj, New Delhi",Paharganj,"Paharganj, New Delhi",77.21796833,28.64574667,North Indian,800,Indian Rupees(Rs.),No,No,2,2.8,18
158,New Vikrant Restaurant,1,New Delhi,"119, Mall Road, Main Chowk, GTB Nagar, New Delhi",GTB Nagar,"GTB Nagar, New Delhi",77.2053503,28.6987623,"North Indian, Mughlai, Chinese",550,Indian Rupees(Rs.),No,No,2,3.5,90
159,Yadav Sweets,1,New Delhi,"Old Rangpuri, Near Sabzi Mandi, Mahipalpur, New Delhi",Mahipalpur,"Mahipalpur, New Delhi",77.126764,28.5442619,"Mithai, Street Food",150,Indian Rupees(Rs.),No,No,1,0,1
160,Kream,189,Pretoria,"570 Fehrsen Street, Brooklyn, Pretoria",Brooklyn,"Brooklyn, Pretoria",28.23604667,-25.77074833,African,450,Rand(R),No,No,4,4.7,373
161,Tibb's Frankie,1,New Delhi,"E-778, Market 2, Chittaranjan Park, New Delhi",Chittaranjan Park,"Chittaranjan Park, New Delhi",77.2534364,28.5363915,Fast Food,250,Indian Rupees(Rs.),No,No,1,3.2,16
162,Belfrance Luxury Chocolates,1,Ludhiana,"SCF 32 C Main Market, Sarabha Nagar, Ludhiana","Main Market, Sarabha Nagar","Main Market, Sarabha Nagar, Ludhiana",75.82181666,30.893244,"Cafe, Continental, Italian, Bakery",1100,Indian Rupees(Rs.),No,No,3,4.4,138
163,Club Prison,1,Gurgaon,"305 & 306, 3rd Floor, Sahara Mall, MG Road, Gurgaon","Sahara Mall, MG Road","Sahara Mall, MG Road, Gurgaon",77.0865747,28.4797207,Finger Food,1800,Indian Rupees(Rs.),No,No,3,2.4,53
164,Imly,1,Noida,"Food Court, DLF Mall Of India, Sector 18, Noida",Sector 18,"Sector 18, Noida",77.32071754,28.56728731,"Street Food, Continental, South Indian, North Indian, Chinese",600,Indian Rupees(Rs.),No,No,2,3.9,204
165,Punjabi Snacks,1,New Delhi,"1912/19, Govindpuri Extension, Kalkaji, New Delhi",Kalkaji,"Kalkaji, New Delhi",77.25814529,28.53519117,"Street Food, North Indian, South Indian",200,Indian Rupees(Rs.),No,No,1,2.9,4
166,Sultan Food,1,New Delhi,"400 A, J & K Pocket, Dilshad Garden, New Delhi",Dilshad Garden,"Dilshad Garden, New Delhi",77.3225314,28.6818859,Mughlai,300,Indian Rupees(Rs.),No,Yes,1,3.1,14
167,Sai Bajaj Restaurant,1,New Delhi,"C 71, Jhilmil Colony, Vivek Vihar, New Delhi",Vivek Vihar,"Vivek Vihar, New Delhi",77.31206504,28.66910046,"Chinese, North Indian",300,Indian Rupees(Rs.),No,Yes,1,3.6,35
168,Friends Restaurant,1,New Delhi,"27-A, Main Market, Opposite Syndicate Bank, Old Rajinder Nagar, Rajinder Nagar, New Delhi",Rajinder Nagar,"Rajinder Nagar, New Delhi",77.1856029,28.6416685,North Indian,300,Indian Rupees(Rs.),No,No,1,2.8,117
169,Rred Hot Asian Bistro,1,Gurgaon,"110, 1st Floor, Cyber Hub, DLF Cyber City, Gurgaon","Cyber Hub, DLF Cyber City","Cyber Hub, DLF Cyber City, Gurgaon",77.0886879,28.4953871,"Chinese, Japanese, Thai, Asian",1400,Indian Rupees(Rs.),Yes,Yes,3,3.5,384
170,Domino's Pizza,1,New Delhi,"1, Ground Floor, Plot 22-B, Pusa Road, Bada Bazar Marg, Rajinder Nagar, New Delhi",Rajinder Nagar,"Rajinder Nagar, New Delhi",77.18654,28.6431648,"Pizza, Fast Food",700,Indian Rupees(Rs.),No,No,2,2.9,119
171,Aggarwal Sweet & Bakers,1,New Delhi,"A-60, Near Doctor's Market, Vasundhara Enclave, New Delhi",Vasundhara Enclave,"Vasundhara Enclave, New Delhi",0,0,"Mithai, Street Food",150,Indian Rupees(Rs.),No,No,1,0,0
172,Swaad Ka Khazana,1,Gurgaon,"F-11, Sushant Shopping Arcade, Phase 1, Sushant Lok, Gurgaon","Sushant Shopping Arcade, Sushant Lok, Gurgaon","Sushant Shopping Arcade, Sushant Lok, Gurgaon, Gurgaon",77.0795604,28.4609372,"North Indian, Mughlai, Chinese",600,Indian Rupees(Rs.),No,No,2,2.6,11
173,Ruth Ann's Family Restaurant,216,Columbus,"941 Veterans Parkway, Columbus, GA 31901",Columbus,"Columbus, Columbus",-84.9876,32.4637,"Breakfast, Diner, Southern",10,Dollar($),No,No,1,3.7,123
174,Anil Mishtan Wala,1,New Delhi,"23-24, Defence Colony Market, Defence Colony, New Delhi",Defence Colony,"Defence Colony, New Delhi",77.2298726,28.5732507,"Mithai, Street Food",100,Indian Rupees(Rs.),No,No,1,3.1,10
175,World In A Box,1,Gurgaon,"DLF Phase 4, Gurgaon",DLF Phase 4,"DLF Phase 4, Gurgaon",77.0966008,28.4834181,"Healthy Food, European, Continental, Salad",750,Indian Rupees(Rs.),No,Yes,2,3.6,461
176,Om Aggarwal Sweets,1,New Delhi,"2 A, Pocket M & N, Janta Flats, Sarita Vihar, New Delhi",Sarita Vihar,"Sarita Vihar, New Delhi",77.2985251,28.5384507,Mithai,100,Indian Rupees(Rs.),No,No,1,0,1
177,That's Y Food,1,Coimbatore,"24/49, TV Swamy Road East, Opposite Emeral Building, RS Puram, Coimbatore",RS Puram,"RS Puram, Coimbatore",76.95295,11.010375,"North Indian, Biryani",1400,Indian Rupees(Rs.),No,No,3,4.2,299
178,Mood 4 Food,1,Noida,"Shop 5, JM Orchid, Sector 76, NOIDA, Sector 72, Noida",Sector 72,"Sector 72, Noida",77.38469392,28.56920274,"Street Food, North Indian",150,Indian Rupees(Rs.),No,No,1,3.1,8
179,Punjab Restaurant,166,Doha,"Near Kahramaa Office, Al Adhwaa Street, Musheireb, Doha",Musheireb,"Musheireb, Doha",51.52302034,25.28246661,Pakistani,80,Qatari Rial(QR),No,No,3,3.8,83
180,Madras Cafe,1,New Delhi,"V 23, Main Hanuman Road, Naveen Shahdara, Shahdara, New Delhi",Shahdara,"Shahdara, New Delhi",77.2853657,28.67692,"South Indian, Fast Food",250,Indian Rupees(Rs.),No,No,1,3.4,28
181,Yard House,216,Rest of Hawaii,"226 Lewers St, Honolulu, HI 96815",Waikiki,"Waikiki, Rest of Hawaii",-157.8312476,21.2794952,"American, Asian, Burger",40,Dollar($),No,No,3,4.6,1078
182,Pal Restaurant,1,New Delhi,"Plot 6, Punjabi Market, Vishnu Nagar, Tilak Nagar, New Delhi",Tilak Nagar,"Tilak Nagar, New Delhi",77.1014529,28.6445351,"North Indian, Chinese",250,Indian Rupees(Rs.),No,No,1,0,0
183,Happy Hakka,1,Gurgaon,"Super Mart 2, DLF Phase 4, Gurgaon",DLF Phase 4,"DLF Phase 4, Gurgaon",77.0880135,28.46157,"Chinese, Asian, Thai",650,Indian Rupees(Rs.),No,Yes,2,4.1,134
184,Zaika,1,Noida,"Tradex Tower 2, Alpha Commercial Belt, Alpha 1, Greater Noida, Noida",Greater Noida,"Greater Noida, Noida",77.5145109,28.472462,"North Indian, Mughlai",600,Indian Rupees(Rs.),No,No,2,2.8,50
185,Ma Cuisine,1,New Delhi,"Plot 38-A, DDA Flats, Shahpur Jat, New Delhi",Shahpur Jat,"Shahpur Jat, New Delhi",77.2166689,28.5477915,"North Indian, Continental, Salad",400,Indian Rupees(Rs.),No,No,1,3.6,43
186,Punjab Grill,1,New Delhi,"2nd Floor, Food Court, Select Citywalk Mall, Saket, New Delhi","Select Citywalk Mall, Saket","Select Citywalk Mall, Saket, New Delhi",77.21932769,28.52869471,"North Indian, Mughlai",1950,Indian Rupees(Rs.),Yes,Yes,3,4.2,1971
187,Christian and Jake's Bistro,216,Dalton,"555 Georgia Hwy 53, Calhoun, GA 30701",Calhoun,"Calhoun, Dalton",-84.926258,34.474635,"Desserts, Sandwich",10,Dollar($),No,No,1,4.4,122
188,Shri Ram Restaurant,1,Gurgaon,"Sector 48, Opposite Eldeco Mansionz, Fazilpur Chowk, Sohna Road, Gurgaon",Sohna Road,"Sohna Road, Gurgaon",77.0409296,28.411627,"North Indian, Mithai, Street Food",400,Indian Rupees(Rs.),No,No,1,2.6,30
189,Retro Kichen,1,New Delhi,"1st Floor, Opposite Police Station, Mehrauli, New Delhi",Mehrauli,"Mehrauli, New Delhi",77.1799022,28.5213242,"Chinese, North Indian",300,Indian Rupees(Rs.),No,No,1,0,0
190,La Baguette - The Imperial,1,New Delhi,"The Imperial, Janpath, New Delhi","The Imperial, Janpath","The Imperial, Janpath, New Delhi",77.218187,28.625445,"Desserts, Bakery",900,Indian Rupees(Rs.),No,No,2,3.8,45
191,Domino's Pizza,1,New Delhi,"1st Floor, Unity One Mall, Janakpuri, New Delhi","Unity One Mall, Janakpuri","Unity One Mall, Janakpuri, New Delhi",77.0760342,28.6288818,"Pizza, Fast Food",700,Indian Rupees(Rs.),No,No,2,3.6,24
192,K2 Restaurant,1,Gurgaon,"3rd Floor, Plaza Mall, MG Road, Gurgaon","Plaza Mall, MG Road","Plaza Mall, MG Road, Gurgaon",77.0730853,28.4777065,"Korean, Chinese",2000,Indian Rupees(Rs.),Yes,No,4,3,21
193,Barista,1,Noida,"A 48, EXL Tower 3, Sector 58, Noida",Sector 58,"Sector 58, Noida",77.358741,28.6048659,Cafe,650,Indian Rupees(Rs.),No,No,2,2.9,5
194,Kitchen Namaste,1,New Delhi,"Khatana Market, Near Sultanpur Metro Station, MG Road, New Delhi",MG Road,"MG Road, New Delhi",77.1618543,28.4997301,"North Indian, Chinese",200,Indian Rupees(Rs.),No,No,1,0,0
195,Foodaucity - Bum Bum Bholey Ke Chole Bhature,1,Gurgaon,"Near Rapid Metro, DLF Phase 3, Gurgaon",DLF Phase 3,"DLF Phase 3, Gurgaon",77.0937234,28.4938093,Street Food,300,Indian Rupees(Rs.),No,No,1,3.3,14
196,The G.T. Road,1,New Delhi,"M 39, Outer Circle, Connaught Place, New Delhi",Connaught Place,"Connaught Place, New Delhi",77.2228913,28.6332275,"North Indian, Afghani, Mughlai",1500,Indian Rupees(Rs.),Yes,No,3,4.3,104
197,The Binge Box Cafe,1,Faridabad,"1st  Floor, 110, HUDA Market, Sector 17, Faridabad",Sector 17,"Sector 17, Faridabad",77.3279106,28.4105998,Cafe,500,Indian Rupees(Rs.),No,No,2,3.4,18
198,Desi Vibes,1,New Delhi,"Shop 7, Defence Colony Main Market, Defence Colony, New Delhi",Defence Colony,"Defence Colony, New Delhi",77.230142,28.5738142,"North Indian, Mughlai",1500,Indian Rupees(Rs.),Yes,Yes,3,4,183
199,Apni Rasoi,1,New Delhi,"G-3, Aggarwal Center Plaza, DC Chowk, Rohini, New Delhi",Rohini,"Rohini, New Delhi",77.1261797,28.7183841,North Indian,300,Indian Rupees(Rs.),No,No,1,3,76
200,Hot Curries,1,New Delhi,"C4F, DDA Market, Janakpuri, New Delhi",Janakpuri,"Janakpuri, New Delhi",77.09035702,28.61683827,"North Indian, Mughlai, Chinese",700,Indian Rupees(Rs.),No,Yes,2,3.4,60
201,Subway,1,New Delhi,"E-25A, Hauz Khas Market, Hauz Khas, New Delhi",Hauz Khas,"Hauz Khas, New Delhi",77.2081473,28.5510151,"American, Fast Food, Salad, Healthy Food",500,Indian Rupees(Rs.),No,Yes,2,2.8,87
202,Orange Peel by Rasleen Kochhar,1,New Delhi,"126, Sunder Nagar, New Delhi",Sunder Nagar,"Sunder Nagar, New Delhi",77.2426044,28.5992226,"Bakery, Fast Food",700,Indian Rupees(Rs.),No,No,2,3.6,44
203,Noddy's,1,New Delhi,"Ground Floor, North Gate Mall, Gujranwala Town, New Delhi",Gujranwala Town,"Gujranwala Town, New Delhi",77.1920054,28.6982616,"Beverages, Desserts",100,Indian Rupees(Rs.),No,No,1,0,0
204,Palmshore,1,Chennai,"95, Jawaharlal Nehru Salai, Jafferkhanpet, Ashok Nagar, Chennai",Ashok Nagar,"Ashok Nagar, Chennai",80.20881157,13.02977985,"North Indian, Mughlai, Chinese, South Indian",850,Indian Rupees(Rs.),Yes,Yes,2,4.2,841
205,Aggarwal Sweets Centre,1,Faridabad,"HR 1B, Pul Pehladpur, Main Suraj Kund Road, Suraj Kund, Faridabad",Suraj Kund,"Suraj Kund, Faridabad",77.2899232,28.4997177,"Mithai, Street Food, Chinese",100,Indian Rupees(Rs.),No,No,1,2.9,4
206,The Tandoor,1,New Delhi,"G-15, D-1, Aashirwaad Complex, Green Park, New Delhi",Green Park,"Green Park, New Delhi",77.2051706,28.5570041,"North Indian, Mughlai",600,Indian Rupees(Rs.),No,Yes,2,3.4,121
207,Chopsuey,1,New Delhi,"7724, New Market, Near Liberty Cinema, Karol Bagh, New Delhi",Karol Bagh,"Karol Bagh, New Delhi",77.1889094,28.6576903,"Chinese, North Indian",600,Indian Rupees(Rs.),No,Yes,2,3.2,71
208,Rasoi E Punjab,1,Noida,"304, Food Court, Spice World Mall, Sector 25 A, Near Sector 25, Noida","Spice World Mall, Sector 25","Spice World Mall, Sector 25, Noida",77.3404494,28.5854737,North Indian,500,Indian Rupees(Rs.),No,No,2,2.6,32
209,Advance Bakery,1,New Delhi,"A-8, Shivpuri, Krishna Nagar, New Delhi",Krishna Nagar,"Krishna Nagar, New Delhi",0,0,"Bakery, Fast Food, Street Food",200,Indian Rupees(Rs.),No,No,1,2.9,7
210,New Dilight,1,Faridabad,"H - 147, Sector 10, Faridabad",Sector 10,"Sector 10, Faridabad",77.3295018,28.3730138,"North Indian, Mughlai, Chinese",500,Indian Rupees(Rs.),No,No,2,0,0
211,Ovenstory Pizza,1,New Delhi,"Green Park, New Delhi",Green Park,"Green Park, New Delhi",77.20523,28.556941,"Pizza, Fast Food",500,Indian Rupees(Rs.),No,Yes,2,3.3,6
212,Masha,1,New Delhi,"9-A, 1st Floor, Hauz Khas Village, New Delhi",Hauz Khas Village,"Hauz Khas Village, New Delhi",77.1940584,28.5541496,"North Indian, Chinese, Thai, Italian, Middle Eastern",1200,Indian Rupees(Rs.),Yes,Yes,3,3.5,384
213,Sanjha Tandoor,1,New Delhi,"Shop 2, DDA Shopping Complex, Phase II, Munirka, New Delhi",Munirka,"Munirka, New Delhi",77.1760003,28.554897,"North Indian, Mughlai",700,Indian Rupees(Rs.),No,No,2,2.8,17
214,Colonel's Kababz,1,New Delhi,"Shop 44-45, Bengali Market, Barakhamba Road, New Delhi",Barakhamba Road,"Barakhamba Road, New Delhi",77.2322198,28.6291908,"North Indian, Fast Food",600,Indian Rupees(Rs.),No,Yes,2,3.4,38
215,Kk Chaap Express,1,Gurgaon,"HUDA Market, Sector 31, Gurgaon",Sector 31,"Sector 31, Gurgaon",77.0506317,28.4527412,"Fast Food, North Indian",250,Indian Rupees(Rs.),No,No,1,3.3,8
216,Kathi Junction,1,Noida,"Shop 132, Ground Floor, MSX Mall, Greater Noida, Noida","MSX Mall, Greater Noida","MSX Mall, Greater Noida, Noida",77.5281474,28.4578535,Fast Food,400,Indian Rupees(Rs.),No,Yes,1,3.5,83
217,Wahid Food Corner,1,Gurgaon,"Plot 100, Sheetla Mata Road, Rajeev Nagar, Sector 14, Gurgaon",Sector 14,"Sector 14, Gurgaon",77.0347763,28.4758171,North Indian,400,Indian Rupees(Rs.),No,No,1,2.8,6
218,Nehra's Food Point,1,Gurgaon,"Opposite Unitech Cyber Park, Sector 39, Gurgaon",Sector 39,"Sector 39, Gurgaon",77.0557718,28.4415695,Chinese,350,Indian Rupees(Rs.),No,No,1,0,0
219,Mr.Hunger,1,New Delhi,"24B/8, Mall Road, Tilak Nagar, New Delhi",Tilak Nagar,"Tilak Nagar, New Delhi",77.0937942,28.6368398,"Burger, Fast Food",500,Indian Rupees(Rs.),No,No,2,3,5
220,Theo Yianni's Authentic Greek Restaurant,216,Weirton,"322 American Way, Weirton, WV 26062",Weirton,"Weirton, Weirton",-80.529488,40.396043,"Burger, Greek, Sandwich",25,Dollar($),No,No,2,3.9,156
221,Lutyens Cocktail House,1,New Delhi,"22, Janpath, New Delhi",Janpath,"Janpath, New Delhi",77.2194535,28.6183217,"North Indian, Lebanese, European, Mexican",2100,Indian Rupees(Rs.),Yes,No,4,3.9,299
222,Firenze,1,New Delhi,"6, 38 Bungalow Road, Kamla Nagar, New Delhi",Kamla Nagar,"Kamla Nagar, New Delhi",77.2048445,28.6839604,Cafe,500,Indian Rupees(Rs.),No,No,2,2.8,25
223,Choco-House Chocolatiers,1,New Delhi,"224 Vardhman Plaza, 9 Local Shopping Center 2, IP Extension, New Delhi",IP Extension,"IP Extension, New Delhi",0,0,Desserts,500,Indian Rupees(Rs.),No,No,2,0,0
224,Niti Shake & Ice Cream Hub,1,New Delhi,"QU Block, DDA Market, Opposite Income Tax Colony, Pitampura, New Delhi",Pitampura,"Pitampura, New Delhi",77.1401987,28.7132994,"Desserts, Beverages",200,Indian Rupees(Rs.),No,No,1,0,2
225,Glen's Bakehouse,1,Bangalore,"297, 100 Feet Road, Indiranagar, Bangalore",Indiranagar,"Indiranagar, Bangalore",77.64062494,12.97909556,"Bakery, Desserts, Cafe",800,Indian Rupees(Rs.),No,No,2,4,3533
226,KG Confectionery and Pastry Shop,1,New Delhi,"C-18, Madhuvihar, Opposite OM Bikanerwala, IP Extension, New Delhi",IP Extension,"IP Extension, New Delhi",77.3038718,28.6348699,"Bakery, Desserts",100,Indian Rupees(Rs.),No,No,1,0,2
227,Pirates of Grill,1,New Delhi,"C-12, Vishal Enclave, Main Nazafgarh Road, Rajouri Garden, New Delhi",Rajouri Garden,"Rajouri Garden, New Delhi",77.1182068,28.6474974,"North Indian, Continental, Mughlai, Asian",1500,Indian Rupees(Rs.),No,No,3,4.1,2514
228,Buddy 's. Pizza,1,New Delhi,"F1/1, Krishna Nagar, New Delhi",Krishna Nagar,"Krishna Nagar, New Delhi",77.2825524,28.660629,Pizza,300,Indian Rupees(Rs.),No,No,1,0,0
229,Hí_agen-Dazs,1,New Delhi,"E-4W, Ground Floor, Select Citywalk Mall, Saket, New Delhi","Select Citywalk Mall, Saket","Select Citywalk Mall, Saket, New Delhi",77.219309,28.529136,"Desserts, Ice Cream",700,Indian Rupees(Rs.),No,No,2,4,649
230,Bhawani Restaurant,1,New Delhi,"Khasra 59, IGNOU Road, Sainik Farms, New Delhi",Sainik Farms,"Sainik Farms, New Delhi",77.2058841,28.51673,"North Indian, Mughlai, Chinese",350,Indian Rupees(Rs.),No,No,1,0,0
231,Oh So Stoned!,1,Noida,"4th Floor, DLF Mall of India, Sector 18, Noida","DLF Mall of India, Sector 18,  Noida","DLF Mall of India, Sector 18,  Noida, Noida",77.3210394,28.56800461,Desserts,250,Indian Rupees(Rs.),No,No,1,4.5,324
232,Vyanjan,1,Noida,"Aditya Celebrity Homes Market, Sector 76, Near Sector 72, Noida",Sector 72,"Sector 72, Noida",77.3839456,28.5712706,North Indian,300,Indian Rupees(Rs.),No,No,1,0,3
233,Mishti's Kitchen,1,Noida,"H-38, Sector 51, Noida",Sector 51,"Sector 51, Noida",77.3692738,28.5781101,"Chinese, Mughlai",550,Indian Rupees(Rs.),No,Yes,2,3.6,49
234,Go! Biryani,1,Noida,"Sector 29, Noida",Sector 29,"Sector 29, Noida",77.3353589,28.5684579,Biryani,500,Indian Rupees(Rs.),No,Yes,2,3.5,144
235,China Town,1,New Delhi,"Basant Lok Market, Opposite Modern Bazar, Vasant Vihar, New Delhi","Basant Lok Market, Vasant Vihar","Basant Lok Market, Vasant Vihar, New Delhi",77.16399444,28.55882222,"Chinese, Fast Food",400,Indian Rupees(Rs.),No,No,1,2.9,7
236,Salad Chef,1,Gurgaon,"Unitech Infospace, Sector 21, Gurgaon","Unitech Infospace, Sector 21, Gurgaon","Unitech Infospace, Sector 21, Gurgaon, Gurgaon",77.07128014,28.5095226,"Healthy Food, Fast Food, Salad",400,Indian Rupees(Rs.),No,Yes,1,3.2,44
237,Roll's World,1,New Delhi,"Opposite Delite Cinema, Asaf Ali Road, Daryaganj, New Delhi",Daryaganj,"Daryaganj, New Delhi",77.2358133,28.6413034,Fast Food,200,Indian Rupees(Rs.),No,No,1,0,0
238,Onesta,1,Bangalore,"215, 216 & 220, Devasandra Village, Kasaba Hobli, New BEL Road, Bangalore",New BEL Road,"New BEL Road, Bangalore",77.5709967,13.0291977,"Pizza, Cafe, Italian",600,Indian Rupees(Rs.),No,No,2,4.6,627
239,Ex- Taj Foods,1,New Delhi,"Main Road, Maujpur, Shahdara, New Delhi",Shahdara,"Shahdara, New Delhi",77.2718928,28.677039,North Indian,400,Indian Rupees(Rs.),No,No,1,0,1
240,The Singing Tree,1,New Delhi,"Market 1, Chittaranjan Park, New Delhi",Chittaranjan Park,"Chittaranjan Park, New Delhi",77.2488222,28.5403609,Beverages,100,Indian Rupees(Rs.),No,No,1,3.7,33
241,Green Truck Pub,216,Savannah,"2430 Habersham Street, Savannah, GA 31401",Savannah,"Savannah, Savannah",-81.096647,32.052858,Burger,40,Dollar($),No,No,3,4.7,906
242,Novelty Chicken Corner,1,New Delhi,"28, C Block Market, East of Kailash, New Delhi",East of Kailash,"East of Kailash, New Delhi",77.25683268,28.55942527,"North Indian, Mughlai",650,Indian Rupees(Rs.),No,Yes,2,3.3,61
243,Ruby Dhaba,1,New Delhi,"G 576, Khureji Khas, Laxmi Nagar, New Delhi",Laxmi Nagar,"Laxmi Nagar, New Delhi",77.2794854,28.645585,North Indian,500,Indian Rupees(Rs.),No,No,2,2.7,25
244,Comesum,1,New Delhi,"Old Delhi Railway Station, Mori Gate, Chandni Chowk, New Delhi",Chandni Chowk,"Chandni Chowk, New Delhi",77.2280206,28.6606804,"North Indian, Street Food, Chinese, South Indian",350,Indian Rupees(Rs.),No,No,1,2.5,49
245,The Belgian Triple,189,Pretoria,"Olympus Village, Corner Olympus Dr And Achilles Road, Faerie Glen, Pretoria",Faerie Glen,"Faerie Glen, Pretoria",28.33247088,-25.79850294,"Healthy Food, Seafood, Beverages, Belgian, Contemporary, Desserts, Finger Food, International",500,Rand(R),No,No,4,4.2,20
246,Shree Rathnam,1,Noida,"309, 3rd Floor, The Great India Place, Sector 38-A, Sector 38, Noida","The Great India Place, Sector 38","The Great India Place, Sector 38, Noida",77.3261382,28.5680132,"South Indian, North Indian, Chinese",800,Indian Rupees(Rs.),No,No,2,3.5,139
247,Asia Kitchen by Mainland China,1,Kolkata,"4th Floor, Acropolis Mall, 1858/1, Rajdanga Main Road, Kasba, Kolkata","Acropolis Mall, Kasba ","Acropolis Mall, Kasba , Kolkata",88.39329377,22.51468755,"Asian, Chinese",1400,Indian Rupees(Rs.),No,Yes,3,4.6,945
248,A Lot Like Cake,1,New Delhi,"E-567, Greater Kailash (GK) 2, New Delhi",Greater Kailash (GK) 2,"Greater Kailash (GK) 2, New Delhi",77.2388987,28.541704,"Bakery, Desserts",350,Indian Rupees(Rs.),No,No,1,3.1,7
249,Irish Democrat,216,Cedar Rapids/Iowa City,"3207 1st Ave SE, Cedar Rapids, IA 52402",Cedar Rapids,"Cedar Rapids, Cedar Rapids/Iowa City",-91.6347,42.01,"American, BBQ, Burger",25,Dollar($),No,No,2,4.4,430
250,Grecian Key Restaurant,216,Pocatello,"314 N Main St, Pocatello, ID 83204",Pocatello,"Pocatello, Pocatello",-112.4524,42.8639,"American, Greek",25,Dollar($),No,No,2,3.7,152
251,Annapurna Sweets,1,New Delhi,"10, DDA Community Centre Market, Yusuf Sarai, New Delhi",Yusuf Sarai,"Yusuf Sarai, New Delhi",77.207147,28.5579096,"Mithai, Street Food",150,Indian Rupees(Rs.),No,No,1,3.9,109
252,Bistro,1,New Delhi,"Jawahar Nagar, Kamla Nagar, New Delhi",Kamla Nagar,"Kamla Nagar, New Delhi",77.2075063,28.6806976,Beverages,150,Indian Rupees(Rs.),No,No,1,3.9,55
253,China Cafe,216,Davenport,"3018 E 53rd St, Davenport, IA 52807",Davenport,"Davenport, Davenport",-90.5321,41.5749,Chinese,25,Dollar($),No,No,2,4,112
254,Balaji Sweets & Snacks,1,Gurgaon,"Shop 1, Near Shiv Mandir Chowk, Rajeev Nagar, Sector 14, Gurgaon",Sector 14,"Sector 14, Gurgaon",77.0348123,28.476036,"North Indian, South Indian, Chinese",400,Indian Rupees(Rs.),No,No,1,2.9,6
255,Kumar Pastry Shop,1,New Delhi,"6/33, Moti Nagar, New Delhi",Moti Nagar,"Moti Nagar, New Delhi",77.1414135,28.658983,"Bakery, Fast Food",300,Indian Rupees(Rs.),No,No,1,3.2,31
256,Food Town,1,Noida,"Shop 12, A Block, Sector 31, Noida",Sector 31,"Sector 31, Noida",0,0,"Chinese, North Indian, South Indian",250,Indian Rupees(Rs.),No,No,1,0,0
257,Leonardo Italian Mediterranean Dining,1,Surat,"Ground Floor, International Business Centre, Surat-Dumas Road, Piplod, Surat","International Business Center, Piplod","International Business Center, Piplod, Surat",72.76877817,21.15773452,"Italian, Mexican, Mediterranean",1400,Indian Rupees(Rs.),No,No,3,4.2,319
258,Modi's Baker's Zone,1,Noida,"Plot 3 A, Sector 126, Nea, Sector 125, Noida",Sector 125,"Sector 125, Noida",77.3297035,28.5472559,"Bakery, Fast Food, Chinese",400,Indian Rupees(Rs.),No,No,1,0,0
259,Shudh Vaishno Amritsari Naan,1,New Delhi,"Near Hero Showroom, Dabri Road, Palam, New Delhi",Palam,"Palam, New Delhi",77.0808459,28.5959508,North Indian,150,Indian Rupees(Rs.),No,No,1,3,6
260,Shama Muradabadi Chicken Corner,1,New Delhi,"C-12,G/F, Main Road Madhu Vihar, IP Extension, New Delhi",IP Extension,"IP Extension, New Delhi",77.3037861,28.6349562,Biryani,300,Indian Rupees(Rs.),No,No,1,0,1
261,The Biryani Co.,1,New Delhi,"1/33, Satyaniketan, New Delhi",Satyaniketan,"Satyaniketan, New Delhi",77.1706691,28.5871376,"Hyderabadi, Biryani, North Indian",650,Indian Rupees(Rs.),No,Yes,2,4.2,295
262,Cafe E,1,New Delhi,"151, Ground Floor, DLF Emporio Mall, Nelson Mandela Marg, Vasant Kunj, New Delhi","DLF Emporio Mall, Vasant Kunj","DLF Emporio Mall, Vasant Kunj, New Delhi",77.15665989,28.54283324,"Cafe, Continental",1600,Indian Rupees(Rs.),No,No,3,3.5,83
263,Moti Mahal Delux,1,New Delhi,"Lower Ground Floor,  Epicuria Food Mall, Nehru Place Metro Station, Nehru Place, New Delhi","Epicuria Food Mall, Nehru Place","Epicuria Food Mall, Nehru Place, New Delhi",77.2514264,28.551456,"North Indian, Mughlai, Chinese",800,Indian Rupees(Rs.),No,Yes,2,3.1,100
264,Uforia,1,Gurgaon,"2nd Floor, MGF Mega City Mall, MG Road, Gurgaon","MGF Mega City Mall, MG Road","MGF Mega City Mall, MG Road, Gurgaon",77.0892274,28.4798411,"Continental, Asian, North Indian, Italian",1500,Indian Rupees(Rs.),Yes,No,3,3.5,240
265,TGI Friday's,1,Gurgaon,"Ground Floor, MGF Metropolitan Mall, MG Road, Gurgaon","MGF Metropolitan Mall, MG Road","MGF Metropolitan Mall, MG Road, Gurgaon",77.0801187,28.4810064,"American, Tex-Mex",2500,Indian Rupees(Rs.),Yes,Yes,4,3.7,730
266,Subway,1,New Delhi,"37, 2nd Floor, Pacific Mall, Tagore Garden, New Delhi","Pacific Mall, Tagore Garden","Pacific Mall, Tagore Garden, New Delhi",77.1069047,28.6424575,"American, Fast Food, Salad, Healthy Food",500,Indian Rupees(Rs.),No,No,2,3.5,65
267,AB's - Absolute Barbecues,1,Bangalore,"90/4, 3rd Floor, Outer Ring Road, Munnekollaly Village, Marathahalli, Bangalore",Marathahalli,"Marathahalli, Bangalore",77.6993861,12.94993396,"European, Mediterranean, North Indian",1400,Indian Rupees(Rs.),No,No,3,4.6,6907
268,VNS Live Studio,1,Varanasi,"Hotel Varuna Ground Floor, 22 Gulab Bagh, Sigra, Varanasi",Sigra,"Sigra, Varanasi",82.99169443,25.31834492,"Chinese, North Indian",0,Indian Rupees(Rs.),No,No,1,3.5,109
269,Cookingo,1,Gurgaon,"Behind Legend Society, Sector 56, Gurgaon",Sector 56,"Sector 56, Gurgaon",0,0,"Mughlai, North Indian, Chinese",350,Indian Rupees(Rs.),No,No,1,0,0
270,Chicken Vicken,1,New Delhi,"Shop 12, I Block, DDA Market, Ashok Vihar Phase 1, New Delhi",Ashok Vihar Phase 1,"Ashok Vihar Phase 1, New Delhi",77.1664456,28.6849156,"North Indian, Chinese",600,Indian Rupees(Rs.),No,No,2,3.4,19
271,Raju Halwai,1,Gurgaon,"Shop 49, Gali 6, Main Madanpuri Road, Laxmi Bazar, Old Railway Road, Gurgaon",Old Railway Road,"Old Railway Road, Gurgaon",77.0179074,28.4603566,North Indian,450,Indian Rupees(Rs.),No,No,1,3.1,7
272,Nirula's,1,Noida,"C-135, Near Sector 15 Metro Station, Sector 2, Noida",Sector 2,"Sector 2, Noida",77.3135127,28.5822486,"Fast Food, North Indian, Chinese, Desserts, Ice Cream",1100,Indian Rupees(Rs.),Yes,Yes,3,2.5,221
273,Barbeque Creation By Kadhai Tadka,1,New Delhi,"R-549, Main Shankar Road, New Rajinder Nagar, Rajinder Nagar, New Delhi",Rajinder Nagar,"Rajinder Nagar, New Delhi",77.1775468,28.6398635,"North Indian, Chinese, Mughlai",800,Indian Rupees(Rs.),Yes,Yes,2,2.5,78
274,Avon Kitchen,1,New Delhi,"Shop 1, Ground Floor, J Block, Ashok Vihar Phase 1, New Delhi",Ashok Vihar Phase 1,"Ashok Vihar Phase 1, New Delhi",77.1736822,28.6872769,"North Indian, Mughlai, Chinese",700,Indian Rupees(Rs.),No,No,2,0,0
275,The Curzon Room - Maidens Hotel,1,New Delhi,"Maidens Hotel, 7, Shamnath Marg, Civil Lines, New Delhi","Maidens Hotel, Civil Lines","Maidens Hotel, Civil Lines, New Delhi",77.2258029,28.6737511,"European, North Indian",3200,Indian Rupees(Rs.),Yes,No,4,3.4,39
276,Oh Buoy - Flying Fox,1,Noida,"Near Supertech Building, Sector 93, Noida",Sector 93,"Sector 93, Noida",77.381653,28.519906,"Chinese, Fast Food",500,Indian Rupees(Rs.),No,No,2,3,7
277,Big Fat Sandwich,1,New Delhi,"A-15A Front, Hauz Khas, New Delhi",Hauz Khas,"Hauz Khas, New Delhi",77.2039324,28.5503273,American,800,Indian Rupees(Rs.),No,No,2,2.9,21
278,The Friends Cafe,1,New Delhi,"F-2/1, Labour Chowk, Krishna Nagar, New Delhi",Krishna Nagar,"Krishna Nagar, New Delhi",0,0,"Chinese, Italian",300,Indian Rupees(Rs.),No,No,1,0,0
279,Delicious Food Corner,1,Gurgaon,"Near Sikandarpur Metro Station, Sikandarpur, Gurgaon",Sikandarpur,"Sikandarpur, Gurgaon",77.0947125,28.4810852,North Indian,400,Indian Rupees(Rs.),No,No,1,0,0
280,Domino's Pizza,1,New Delhi,"30, Aditya Arcade, Preet Vihar, New Delhi",Preet Vihar,"Preet Vihar, New Delhi",77.2949499,28.6393333,"Pizza, Fast Food",700,Indian Rupees(Rs.),No,No,2,2.8,102
281,Kabir Restaurant,1,Ahmedabad,"JB Tower, Opposite Doordarshan Kendra, Drive In Road, Gurukul, Ahmedabad",Gurukul,"Gurukul, Ahmedabad",72.5239649,23.04850469,"North Indian, Chinese, Continental, Desserts, Fast Food, Sandwich",600,Indian Rupees(Rs.),No,Yes,2,3.8,432
282,Sri Kamakshi Vilas,1,New Delhi,"B-223, Krishna Market, Lajpat Nagar 1, New Delhi",Lajpat Nagar 1,"Lajpat Nagar 1, New Delhi",77.24151291,28.57573998,"South Indian, North Indian",400,Indian Rupees(Rs.),No,No,1,2.7,9
283,Laziz Foods,1,New Delhi,"B-2 Market, Behind Indian Overseas Bank, Safdarjung Enclave, Safdarjung, New Delhi",Safdarjung,"Safdarjung, New Delhi",0,0,"Mughlai, North Indian",400,Indian Rupees(Rs.),No,No,1,0,2
284,Super Loco,184,Singapore,60 Roberston Quay #01-13 238252,"Robertson Quay, Singapore River","Robertson Quay, Singapore River, Singapore",103.839165,1.290083898,"American, Mexican",95,Dollar($),No,No,4,3.2,30
285,Chandra Sweets,1,New Delhi,"A-8, Alaknanda Shopping Complex, Near Tara Apartment, Alaknanda, New Delhi",Alaknanda,"Alaknanda, New Delhi",77.2540557,28.5255719,"Mithai, North Indian, South Indian, Street Food",400,Indian Rupees(Rs.),No,No,1,3,7
286,CafíÂ Befikre,1,New Delhi,"289, 1st Floor, Satyaniketan, New Delhi",Satyaniketan,"Satyaniketan, New Delhi",77.17,28.59,"Chinese, Continental",600,Indian Rupees(Rs.),No,Yes,2,3.8,80
287,Rebos,216,Sioux City,"1107 4th St, Sioux City, IA 51101",Sioux City,"Sioux City, Sioux City",-96.3959487,42.4944454,"Caribbean, Mexican, Cajun",25,Dollar($),No,No,2,3.8,187
288,Shri Bankey Bihari Brajwasi Rasgulle Wala,1,New Delhi,"D-128, Kamla Nagar, New Delhi",Kamla Nagar,"Kamla Nagar, New Delhi",77.2006788,28.6812987,"Mithai, Street Food",150,Indian Rupees(Rs.),No,No,1,3.5,36
289,Wailana Coffee House,216,Rest of Hawaii,"1860 Ala Moana Blvd, Honolulu, HI 96815",Waikiki,"Waikiki, Rest of Hawaii",-157.836031,21.285396,"American, Breakfast, Hawaiian",25,Dollar($),No,No,2,4.2,694
290,Mamta Tiffin Service,1,Gurgaon,"Block A, Rajendra Park, Bajghera Road, Near Railway Station, Sector 105, Near Palam Vihar, Palam Vihar, Gurgaon",Palam Vihar,"Palam Vihar, Gurgaon",0,0,North Indian,150,Indian Rupees(Rs.),No,No,1,0,0
291,#Dilliwaala6,1,Puducherry,"6, Rue De La Marine, White Town, Puducherry",White Town,"White Town, Puducherry",79.83481014,11.9365319,North Indian,800,Indian Rupees(Rs.),No,No,3,3.7,124
292,Eat Golf Repeat,1,New Delhi,"11, 2nd Floor, Opposite Venketeshwar College, Satyaniketan, New Delhi",Satyaniketan,"Satyaniketan, New Delhi",77.1671645,28.5877879,"Cafe, Italian, Continental, Mexican",800,Indian Rupees(Rs.),No,No,2,4.1,37
293,Food4U!,1,Gurgaon,"198-199, Paras Trade Centre, Gwal Pahari, Sector 56, Gurgaon",Sector 56,"Sector 56, Gurgaon",77.1362757,28.4362232,"North Indian, Chinese, Street Food",600,Indian Rupees(Rs.),No,Yes,2,3.2,18
294,Kobe Hibachi & Sushi,216,Dalton,"2603 Battlefield Pkwy, Fort Oglethorpe, GA 30742",Fort Oglethorpe,"Fort Oglethorpe, Dalton",-85.2229101,34.9428786,"American, Japanese, Sushi",25,Dollar($),No,No,2,4.6,214
295,Anand Ji Restaurant,1,New Delhi,"35, Community Centre, New Friends Colony, New Delhi","Community Centre, New Friends Colony","Community Centre, New Friends Colony, New Delhi",77.26811942,28.56171513,"Chinese, North Indian, Street Food",400,Indian Rupees(Rs.),No,No,1,3.1,28
296,Parantha Gurus,1,Gurgaon,"5, Food Court, 3rd Floor, DLF Mega Mall, DLF Phase 1, Gurgaon","DLF Mega Mall, DLF Phase 1","DLF Mega Mall, DLF Phase 1, Gurgaon",77.09312875,28.47574493,North Indian,500,Indian Rupees(Rs.),No,No,2,3.3,27
297,Brijwasi Dhaba,1,Noida,"Sadarpur Colony, Sabzi Mandi, Sector 22, Noida",Sector 22,"Sector 22, Noida",77.3445624,28.597278,North Indian,200,Indian Rupees(Rs.),No,No,1,0,0
298,Dilli Zaika,1,New Delhi,"B-4/96 A, Keshavpuram, Lawrence Road, New Delhi",Lawrence Road,"Lawrence Road, New Delhi",77.1598506,28.6897195,"Fast Food, South Indian, Chinese",300,Indian Rupees(Rs.),No,No,1,3.2,23
299,Meats,30,Sí£o Paulo,"Rua dos Pinheiros, 320, Pinheiros, Sí£o Paulo",Pinheiros,"Pinheiros, Sí£o Paulo",-46.68133333,-23.56483333,"Gourmet Fast Food, Burger",120,Brazilian Real(R$),No,No,4,4.3,68
300,New Evergreen Hotel,1,New Delhi,"7, Sai Hospital Road, Bhogal, Jangpura, New Delhi",Jangpura,"Jangpura, New Delhi",77.2476766,28.5844282,"North Indian, Mughlai",450,Indian Rupees(Rs.),No,No,1,2.9,7
301,Sugarcraft Patisserie,1,Gurgaon,"G-37, Ground Floor, The Sapphire, Block S, Uppal Southend, Sohna Road, Gurgaon",Sohna Road,"Sohna Road, Gurgaon",77.0484858,28.4117267,Bakery,800,Indian Rupees(Rs.),No,No,2,3.3,16
302,Tava & Tandoor,1,New Delhi,"C-37, LG-1,2, Opposite Narwana Appartment, Madhu Vihar, IP Extension, New Delhi",IP Extension,"IP Extension, New Delhi",77.3030602,28.635191,"North Indian, Chinese",400,Indian Rupees(Rs.),No,No,1,0,1
303,Edison: Food+Drink Lab,216,Tampa Bay,"912 W Kennedy Blvd, Tampa, FL 33606",Hyde Park,"Hyde Park, Tampa Bay",-82.469306,27.944244,International,70,Dollar($),No,No,4,3.9,373
304,10 Downing Street,1,Indore,"Second Floor, Malhar Mega Mall, AB Road, Scheme 54, Vijay Nagar, Indore",Vijay Nagar,"Vijay Nagar, Indore",75.8943769,22.744648,"North Indian, Chinese",1500,Indian Rupees(Rs.),No,No,4,4,413
305,Domino's Pizza,1,Noida,"Ground Floor, Botanical Garden, Metro Station, Sector 38, Noida",Sector 38,"Sector 38, Noida",77.334211,28.564222,"Pizza, Fast Food",700,Indian Rupees(Rs.),No,No,2,2.4,70
306,Cakes & Bakes,1,New Delhi,"C-77, Shivalik Road, Malviya Nagar, New Delhi",Malviya Nagar,"Malviya Nagar, New Delhi",77.210737,28.5378192,"Bakery, Desserts",500,Indian Rupees(Rs.),No,No,2,3.4,75
307,Ronny Flavours,1,Gurgaon,"Shop 105, Main Market, Sector 22, Gurgaon, Delhi NCR",Sector 22,"Sector 22, Gurgaon",0,0,"Fast Food, Beverages",300,Indian Rupees(Rs.),No,No,1,0,2
308,Kathi Junction,1,New Delhi,"F 243 A, Shop 1, Pocket F, Near Sai Chowk, Dilshad Garden, New Delhi",Dilshad Garden,"Dilshad Garden, New Delhi",77.3180387,28.6806468,Fast Food,250,Indian Rupees(Rs.),No,No,1,0,0
309,Boa Village,1,New Delhi,"13, Alipur Road, Civil Lines, New Delhi",Civil Lines,"Civil Lines, New Delhi",77.2252919,28.6767537,"Chinese, Japanese, Korean, Asian",1500,Indian Rupees(Rs.),Yes,No,3,4,225
310,Bansal Sweet,1,New Delhi,"A 4/1, Acharya Niketan, Mayur Vihar Phase 1, New Delhi",Mayur Vihar Phase 1,"Mayur Vihar Phase 1, New Delhi",77.2934295,28.6082009,"Desserts, Street Food",150,Indian Rupees(Rs.),No,No,1,2.7,20
311,24/7 Bar- The Lalit New Delhi,1,New Delhi,"The Lalit, Barakhamba Avenue, Barakhamba Road, New Delhi","The Lalit New Delhi, Barakhamba Road","The Lalit New Delhi, Barakhamba Road, New Delhi",77.227277,28.631407,Finger Food,3000,Indian Rupees(Rs.),No,No,4,3.5,45
312,The Bar - Trident Gurgaon,1,Gurgaon,"Trident, 443, Phase 5, Udyog Vihar, Gurgaon","Trident, Udyog Vihar","Trident, Udyog Vihar, Gurgaon",77.0867995,28.5022869,Finger Food,2000,Indian Rupees(Rs.),No,No,4,3.3,36
313,Dabba Meat,1,Gurgaon,"U Block 1/16, DLF Phase 3, Gurgaon",DLF Phase 3,"DLF Phase 3, Gurgaon",77.0930322,28.4906544,North Indian,550,Indian Rupees(Rs.),No,Yes,2,3.4,29
314,Dilli BC,1,New Delhi,"B-2, Local Shopping Complex, STC/MMTC Market, Near Sri Aurobindo College, Malviya Nagar, New Delhi",Malviya Nagar,"Malviya Nagar, New Delhi",77.2036117,28.5325807,"North Indian, Mughlai",700,Indian Rupees(Rs.),No,Yes,2,4.4,84
315,Madras Dosa & Chinese,1,New Delhi,"Shop 6, BN Block Market, Shalimar Bagh, New Delhi",Shalimar Bagh,"Shalimar Bagh, New Delhi",77.1626712,28.7066721,"South Indian, Chinese",500,Indian Rupees(Rs.),No,No,2,0,0
316,Draft Gastro Pub,208,ÛÁstanbul,"Caddebostan Mahallesi, BaÛôdat Caddesi, No 349, Kat 1, KadÛ±kí_y, ÛÁstanbul",Caddebostan,"Caddebostan, ÛÁstanbul",29.07411609,40.96393456,Bar Food,130,Turkish Lira(TL),No,No,4,4.9,522
317,Shiv Restaurant,1,Faridabad,"122 & 123, HUDA Market, Sector 17, Faridabad",Sector 17,"Sector 17, Faridabad",77.3278324,28.4101647,North Indian,400,Indian Rupees(Rs.),No,No,1,2.7,20
318,Bluebird Diner,216,Cedar Rapids/Iowa City,"330 E Market St, Iowa City, IA 52245",Iowa City,"Iowa City, Cedar Rapids/Iowa City",-91.531093,41.663751,"Breakfast, Diner",25,Dollar($),No,No,2,3.6,253
319,Megha Vaishno Dhaba,1,Gurgaon,"U-21/1, Road 15, Near Mother Dairy, DLF Phase 3, Gurgaon",DLF Phase 3,"DLF Phase 3, Gurgaon",77.0952332,28.4949836,North Indian,300,Indian Rupees(Rs.),No,No,1,3.1,33
320,Grub House,1,New Delhi,"J-2/14, BK Dutt Market, Rajouri Garden, New Delhi",Rajouri Garden,"Rajouri Garden, New Delhi",77.1192573,28.6472138,"Italian, North Indian, Continental",1700,Indian Rupees(Rs.),Yes,No,3,3.5,313
321,Whipped,1,New Delhi,"3, Defence Colony Market, Near Citibank, Defence Colony, New Delhi",Defence Colony,"Defence Colony, New Delhi",77.230142,28.5739038,"Bakery, Desserts",550,Indian Rupees(Rs.),No,Yes,2,4.2,372
322,McDonald's,1,New Delhi,"25-27, Ground Floor, D Mall, Rohini, New Delhi",Rohini,"Rohini, New Delhi",77.1137736,28.7167411,"Fast Food, Burger",500,Indian Rupees(Rs.),No,Yes,2,3.5,67
323,Hot Stuff,1,Allahabad,"21 C, Lal Bhadhur Shastri Marg, Civil Lines, Allahabad",Civil Lines,"Civil Lines, Allahabad",81.841889,25.45235,"North Indian, Fast Food",500,Indian Rupees(Rs.),No,No,3,3.5,105
324,Chawla'sŒ_,1,New Delhi,"12, Opposite Eros Cinema, Jangpura Extension Market, Jangpura, New Delhi",Jangpura,"Jangpura, New Delhi",77.2417277,28.5802945,"North Indian, Mughlai",800,Indian Rupees(Rs.),Yes,Yes,2,2.3,126
325,Aprazí_vel,30,Rio de Janeiro,"Rua Aprazí_vel, 62, Santa Teresa, Rio de Janeiro",Santa Teresa,"Santa Teresa, Rio de Janeiro",-43.18736944,-22.92481389,Brazilian,300,Brazilian Real(R$),No,No,4,4.7,44
326,Tobasco Kitchen,1,Gurgaon,"U-9/1, DLF Phase 3, Gurgaon",DLF Phase 3,"DLF Phase 3, Gurgaon",77.0946676,28.4930484,"Fast Food, Pizza",500,Indian Rupees(Rs.),No,Yes,2,3.2,38
327,Nagai,1,Gurgaon,"SCO 305, Ground Floor, Huda Gymkhana Road, Behind The Pllazio Hotel, Sector 29, Gurgaon",Sector 29,"Sector 29, Gurgaon",77.064243,28.4640533,"Japanese, Sushi",3300,Indian Rupees(Rs.),No,No,4,4.3,56
328,Super Snacks,1,New Delhi,"Main Market, Krishna Nagar, New Delhi",Krishna Nagar,"Krishna Nagar, New Delhi",77.2794854,28.6595627,"South Indian, Fast Food, Street Food",500,Indian Rupees(Rs.),No,No,2,3.1,44
329,Kori's,1,New Delhi,"R-62/1, Humayunpur, Safdarjung Enclave, Safdarjung, New Delhi",Safdarjung,"Safdarjung, New Delhi",77.19367238,28.5626823,"Cafe, Korean",600,Indian Rupees(Rs.),No,Yes,2,3.6,110
330,Pat 'N' Harry,1,New Delhi,"Shop 3, Ground Floor, Unity One Mall, Janakpuri, New Delhi","Unity One Mall, Janakpuri","Unity One Mall, Janakpuri, New Delhi",77.075439,28.629097,American,400,Indian Rupees(Rs.),No,Yes,1,2.3,42
331,Momos Hut & Chinese Food,1,New Delhi,"6, Single Storey, Ground Floor, Near Gurudwara Singh Sabha, Kirti Nagar, New Delhi",Kirti Nagar,"Kirti Nagar, New Delhi",77.1367382,28.6503488,"Chinese, Fast Food",500,Indian Rupees(Rs.),No,No,2,2.4,20
332,Singh Terrace Grill,1,Gurgaon,"C-96/97, 1st Floor, Vyapar Kendra, Palam Vihar, Gurgaon",Palam Vihar,"Palam Vihar, Gurgaon",77.03139368,28.50913665,North Indian,500,Indian Rupees(Rs.),No,No,2,0,0
333,Cafe TAB,1,New Delhi,"JA-1A, DDA Flats, Near Sarg Ashram Mandir, Rajouri Garden, New Delhi",Rajouri Garden,"Rajouri Garden, New Delhi",77.11567003,28.63090904,Cafe,500,Indian Rupees(Rs.),No,Yes,2,3,17
334,"34, Chowringhee Lane",1,New Delhi,"Shop 2, Plot 57, Under Dwarka Mor Metro Station Pillar No 776, Sewak Park, Uttam Nagar, New Delhi",Uttam Nagar,"Uttam Nagar, New Delhi",77.0334663,28.6191075,Fast Food,200,Indian Rupees(Rs.),No,Yes,1,3.1,5
335,Kashmiri Kitchen,1,Gurgaon,"Near IFFCO Chowk Metro Station, Opposite Metro Pillar 141, DLF Phase 4, Gurgaon",DLF Phase 4,"DLF Phase 4, Gurgaon",77.0715115,28.4739245,Kashmiri,1000,Indian Rupees(Rs.),Yes,Yes,3,3.4,210
336,Mithaas,1,Noida,"G-20, Ground Floor, Ashirwad Complex, Sector 53, Noida",Sector 53,"Sector 53, Noida",77.3630838,28.5863139,"North Indian, Chinese, South Indian, Mithai",650,Indian Rupees(Rs.),No,Yes,2,3.2,193
337,The Darzi Bar & Kitchen,1,New Delhi,"H-55, 1st Floor, Outer Circle, Connaught Place, New Delhi",Connaught Place,"Connaught Place, New Delhi",77.2191391,28.6355397,"North Indian, European",1500,Indian Rupees(Rs.),Yes,No,3,4.1,90
338,Costa Coffee,1,New Delhi,"M-38, Greater Kailash (GK) 2, New Delhi",Greater Kailash (GK) 2,"Greater Kailash (GK) 2, New Delhi",77.2432456,28.5337162,Cafe,600,Indian Rupees(Rs.),No,No,2,3.5,103
339,Mainland China,1,Bhubaneshwar,"The Crown, A1, Near IRC Village, Nayapalli, Bhubaneshwar","The Crown, Nayapalli","The Crown, Nayapalli, Bhubaneshwar",85.818494,20.292363,Chinese,1500,Indian Rupees(Rs.),No,No,3,4.3,345
340,Town Hall,1,New Delhi,"60-61, Near Dayal Opticals, Middle Circle Lane, Khan Market, New Delhi",Khan Market,"Khan Market, New Delhi",77.2270521,28.6000351,"Japanese, Thai, Italian, Asian",2500,Indian Rupees(Rs.),No,No,4,3.8,1186
341,Senorita's,1,New Delhi,"10, Samachar Market, Mayur Vihar Phase 1 Extension, Mayur Vihar Phase 1, New Delhi",Mayur Vihar Phase 1,"Mayur Vihar Phase 1, New Delhi",77.2949672,28.597776,"Mexican, North Indian",550,Indian Rupees(Rs.),No,No,2,3.7,57
342,Level 5 - Terrace Restro & Cafe,1,Surat,"5th floor, Royal Trade Centre, Opposite Star Bazaar, Adajan, Adajan Gam, Surat",Adajan Gam,"Adajan Gam, Surat",72.79411532,21.18643846,"Chinese, North Indian, Italian, Mexican",900,Indian Rupees(Rs.),No,No,3,3.8,201
343,E Yum,1,Gurgaon,"Plot H-16/6, MG Road, Gurgaon",MG Road,"MG Road, Gurgaon",77.10031841,28.47773187,"Continental, Italian, Mexican",750,Indian Rupees(Rs.),No,Yes,2,3.4,69
344,Ninkasi Imperial Brews & Cookery,1,Gurgaon,"201-204, 2nd Floor, DLF Star Mall, Sector 30, Gurgaon","DLF Star Mall, Sector 30","DLF Star Mall, Sector 30, Gurgaon",77.0526236,28.4616176,"North Indian, Asian, European",3000,Indian Rupees(Rs.),Yes,No,4,4.2,77
345,Shiv Tikki Wala,1,New Delhi,"Ground Floor, Pramesh Tower, Karkardooma Community Centre, Karkardooma, New Delhi",Karkardooma,"Karkardooma, New Delhi",77.3023084,28.6492275,"Street Food, North Indian",250,Indian Rupees(Rs.),No,No,1,3.8,300
346,Barichi Restaurant,1,New Delhi,"A 29/3, NH 8, Mahipalpur Extension, Mahipalpur, New Delhi",Mahipalpur,"Mahipalpur, New Delhi",77.1277978,28.549335,"North Indian, South Indian, Chinese",1000,Indian Rupees(Rs.),Yes,No,3,2.9,7
347,Wrap & Roll,1,New Delhi,"Ground Floor, B-1/8, Shop 7, Apsara Arcade, Karol Bagh, New Delhi",Karol Bagh,"Karol Bagh, New Delhi",77.18873441,28.6436297,"Fast Food, Chinese",400,Indian Rupees(Rs.),No,Yes,1,3.4,36
348,Spicy Tadka,1,New Delhi,"BE 332, Hari Nagar Street 3, Mayapuri Phase 2, New Delhi",Mayapuri Phase 2,"Mayapuri Phase 2, New Delhi",77.1196062,28.6308168,"North Indian, Chinese",600,Indian Rupees(Rs.),No,Yes,2,3.5,24
349,Cafe Coffee Day,1,Noida,"Unitech Infospace, Sector 135, Near Sector 132, Noida",Sector 132,"Sector 132, Noida",77.4038963,28.4995663,Cafe,450,Indian Rupees(Rs.),No,No,1,0,3
350,Bombay Brasserie,1,Bangalore,"2989/B, 12th Main Road, HAL 2nd Stage, Indiranagar, Bangalore",Indiranagar,"Indiranagar, Bangalore",77.645748,12.970324,Modern Indian,1500,Indian Rupees(Rs.),No,Yes,3,4.2,231
351,Flavours Cafe,1,Varanasi,"1st Floor, Swastik Plaza, Near Ravidas Gate, BHU Road, Lanka, Varanasi",Lanka,"Lanka, Varanasi",82.999827,25.281437,"North Indian, Cafe",400,Indian Rupees(Rs.),No,No,2,3.4,85
352,Bakar The Cafe,1,New Delhi,"G-24, Hudson Lane, Delhi University-GTB Nagar, New Delhi",Delhi University-GTB Nagar,"Delhi University-GTB Nagar, New Delhi",77.2031499,28.6951306,Cafe,400,Indian Rupees(Rs.),No,No,1,4.1,111
353,Kareem's Fine Dining,1,Aurangabad,"A1-A3, Motiwala Complex, Below KFC Restaurant, Nirala Bazar, Aurangabad",Nirala Bazar,"Nirala Bazar, Aurangabad",75.32350278,19.88025556,"Mughlai, Biryani",700,Indian Rupees(Rs.),No,No,2,3.3,45
354,Singh Ching,1,New Delhi,"2512, Hudson Lane, Near GTB Nagar Metro Station, Delhi University-GTB Nagar, New Delhi",Delhi University-GTB Nagar,"Delhi University-GTB Nagar, New Delhi",77.2041824,28.6956951,"North Indian, Chinese, Mughlai",600,Indian Rupees(Rs.),No,Yes,2,3.4,427
355,Chokola,1,New Delhi,"67-A, Khan Market, New Delhi",Khan Market,"Khan Market, New Delhi",77.2265943,28.5997809,"Cafe, Desserts, Bakery",700,Indian Rupees(Rs.),No,Yes,2,3.8,391
356,Themis Barbecue House,1,New Delhi,"Shop 251, 2nd Floor, Aggarwal Millennium Tower 1, Netaji Subhash Place, New Delhi",Netaji Subhash Place,"Netaji Subhash Place, New Delhi",77.1493702,28.6936643,North Indian,1400,Indian Rupees(Rs.),Yes,No,3,3.8,457
357,Al-Aayat Mughlai Biryani,1,Noida,"NH-24, Lok Priya Vihar, Khoda Colony, Sector 62-A, Near, Sector 62, Noida",Sector 62,"Sector 62, Noida",77.35400308,28.61044692,Biryani,100,Indian Rupees(Rs.),No,No,1,0,0
358,Singh Chinese Fast Food,1,New Delhi,"C Block, Main Road, Pratap Nagar, Near, Kamla Nagar, New Delhi",Kamla Nagar,"Kamla Nagar, New Delhi",77.1991559,28.6675893,Chinese,200,Indian Rupees(Rs.),No,No,1,0,0
359,Republic of Chicken,1,New Delhi,"96, Meharchand Market, Lodhi Colony, New Delhi",Lodhi Colony,"Lodhi Colony, New Delhi",77.2268188,28.5836257,"Raw Meats, Fast Food",400,Indian Rupees(Rs.),No,No,1,2.7,10
360,Culture Club - Bar De Tapas,189,Pretoria,"15, 16th Street, Waterkloof, Pretoria 0081",Waterkloof,"Waterkloof, Pretoria",28.255682,-25.775823,"Cafe, Tapas, South African, Beverages, Healthy Food, Desserts, Spanish",285,Rand(R),No,No,3,4.5,97
361,Chocofairies,1,New Delhi,"Near Alaknanda Market, Kalkaji, New Delhi",Kalkaji,"Kalkaji, New Delhi",77.2616631,28.5382626,Bakery,200,Indian Rupees(Rs.),No,No,1,0,3
362,DomDom Biryani,1,New Delhi,"South Extension 2, New Delhi",South Extension 2,"South Extension 2, New Delhi",0,0,"Biryani, Mughlai, Bengali, North Indian",800,Indian Rupees(Rs.),No,Yes,2,3.7,89
363,Hard Rock Cafe,1,Gurgaon,"Unit 4/5/104/105, R Block, Cyber Hub, DLF Cyber City, Gurgaon","Cyber Hub, DLF Cyber City","Cyber Hub, DLF Cyber City, Gurgaon",77.088508,28.4949217,"Mediterranean, Mexican, North Indian, American",2500,Indian Rupees(Rs.),Yes,No,4,4.1,1949
364,Habibi,1,New Delhi,"C-13, 1st Floor, Opposite Metro Pillar 414, Vishal Enclave, Rajouri Garden, New Delhi",Rajouri Garden,"Rajouri Garden, New Delhi",77.1183445,28.647538,"Middle Eastern, Mediterranean, North Indian",1250,Indian Rupees(Rs.),Yes,Yes,3,3.7,196
365,Republic of Chicken,1,New Delhi,"100, Old Rajinder Nagar Market, Near UCO Market, Rajinder Nagar, New Delhi",Rajinder Nagar,"Rajinder Nagar, New Delhi",77.1849192,28.6406889,"Raw Meats, Fast Food",400,Indian Rupees(Rs.),No,No,1,2.8,33
366,Allishan Family Restaurant,1,New Delhi,"114/1, Main IGNOU Road, Neb Sarai, Sainik Farms, New Delhi",Sainik Farms,"Sainik Farms, New Delhi",77.2008084,28.5086514,North Indian,200,Indian Rupees(Rs.),No,No,1,0,1
367,Priya Panchvati,1,New Delhi,"C-11/8, Yamuna Vihar, Shahdara, New Delhi",Shahdara,"Shahdara, New Delhi",77.2770165,28.6982532,"South Indian, Fast Food, Chinese",550,Indian Rupees(Rs.),No,No,2,2.9,10
368,Kapil Dev's Eleven,1,Patna,"Lower Ground Floor, Dumraow Kothi, Frazer Road, Lodipur, Patna",Lodipur,"Lodipur, Patna",85.13806111,25.61098056,"North Indian, Chinese, Finger Food",1000,Indian Rupees(Rs.),No,No,3,3.6,107
369,Grit,216,Athens,"199 Prince Ave, Athens, GA 30601",Athens,"Athens, Athens",-83.381625,33.960112,"International, Southern, Vegetarian",10,Dollar($),No,No,1,4.2,800
370,Silver,1,Faridabad,"K Hotel, Plot 2, Behind Pristine Mall, Sector 31, Faridabad",K Hotel,"K Hotel, Faridabad",77.316429,28.446715,"North Indian, Chinese, Continental",1500,Indian Rupees(Rs.),Yes,No,3,0,3
371,Burger Liquor,148,Wellington City,"129 Willis Street, Te Aro, Wellington City",Te Aro,"Te Aro, Wellington City",174.774546,-41.289798,American,55,NewZealand($),No,No,3,4.1,116
372,Lazeez Restaurant,1,New Delhi,"J 15, Alaknanda Shopping Complex, Mini Market, Alaknanda, New Delhi",Alaknanda,"Alaknanda, New Delhi",77.2545694,28.5256646,"Chinese, North Indian, Italian, Mughlai",600,Indian Rupees(Rs.),No,Yes,2,3,11
373,Kalsang AMA Cafe,1,Dehradun,"88, Opposite Osho, Chander Lok Colony, Rajpur Road, Rajpur, Dehradun",Rajpur,"Rajpur, Dehradun",0,0,Cafe,600,Indian Rupees(Rs.),No,No,3,4.2,89
374,Bharat Chicken Inn,1,New Delhi,"G-1, CSC, Pankaj Plaza, DDA Market, Near Nirman Vihar Metro Station, Laxmi Nagar, New Delhi",Laxmi Nagar,"Laxmi Nagar, New Delhi",77.2863012,28.6368165,"Mughlai, Fast Food, North Indian",800,Indian Rupees(Rs.),No,Yes,2,2.4,41
375,Mughlaai Daawat,1,New Delhi,"H 2, Bali Nagar, Ramesh Nagar, Near, Moti Nagar, New Delhi",Moti Nagar,"Moti Nagar, New Delhi",77.1414048,28.6617937,"North Indian, Mughlai, Fast Food",550,Indian Rupees(Rs.),No,No,2,2.9,8
376,Evergreen Food Corner,1,New Delhi,"55, A Block Market, Mayur Vihar Phase 2, New Delhi",Mayur Vihar Phase 2,"Mayur Vihar Phase 2, New Delhi",77.2979348,28.6191348,"Fast Food, Raw Meats",350,Indian Rupees(Rs.),No,No,1,0,3
377,Mandrain,1,New Delhi,"Food Court, V3S Mall, Laxmi Nagar, New Delhi","V3S Mall, Laxmi Nagar","V3S Mall, Laxmi Nagar, New Delhi",77.2870265,28.6369816,Chinese,450,Indian Rupees(Rs.),No,No,1,2.8,7
378,New Raja Sweets,1,New Delhi,"A 140, Gandhi Nagar, Hari Nagar, Mayapuri Phase 2, New Delhi",Mayapuri Phase 2,"Mayapuri Phase 2, New Delhi",77.1144456,28.6258469,"Mithai, Street Food",150,Indian Rupees(Rs.),No,No,1,2.9,18
379,Three Guys,1,Guwahati,"R.G.B Road, Zonali, Near Jonali Bus Stop, Zoo Tiniali, Guwahati",Zoo Tiniali,"Zoo Tiniali, Guwahati",91.77896976,26.16767011,"Continental, North Indian, Chinese, Arabian, Thai",700,Indian Rupees(Rs.),No,No,2,4.3,233
380,Moradabadi Biryani,1,New Delhi,"E 361, Double Storey, Ramesh Nagar, Near, Kirti Nagar, New Delhi",Kirti Nagar,"Kirti Nagar, New Delhi",77.1306799,28.6489773,"Lucknowi, Biryani",300,Indian Rupees(Rs.),No,No,1,3.1,9
381,Riders Hub,1,Gurgaon,"Vanijya Nikunj, Near Income Tax Office, Phase 5, Udyog Vihar, Gurgaon",Udyog Vihar,"Udyog Vihar, Gurgaon",77.0879685,28.4991724,"Chinese, Continental, North Indian",800,Indian Rupees(Rs.),Yes,No,2,3.1,11
382,Karakí_y Gí_llí_oÛôlu,208,ÛÁstanbul,"Kemankeô Karamustafa Paôa Mahallesi, RÛ±htÛ±m Caddesi, KatlÛ± Otopark AltÛ±, No 4, BeyoÛôlu, ÛÁstanbul",Karakí_y,"Karakí_y, ÛÁstanbul",28.97763569,41.02290443,"Desserts, Bí_rek",40,Turkish Lira(TL),No,No,2,4.7,1305
383,Sunshine Family Restaurant,216,Dubuque,"401 Central Ave, Dubuque, IA 52001",Dubuque,"Dubuque, Dubuque",-90.663686,42.4982789,"American, Breakfast, Burger",10,Dollar($),No,No,1,3.5,60
384,Viva Hyderabad,1,New Delhi,"Shop 102, 1st Floor, DDA Market 2, Chittaranjan Park, New Delhi",Chittaranjan Park,"Chittaranjan Park, New Delhi",77.2529294,28.53692899,"Biryani, North Indian",600,Indian Rupees(Rs.),No,Yes,2,2.3,38
385,Jalsa,1,New Delhi,"43, Humayunpur, Safdarjung, New Delhi",Safdarjung,"Safdarjung, New Delhi",77.19475061,28.56265773,Chinese,450,Indian Rupees(Rs.),No,Yes,1,2.7,6
386,Singh Mutton & Chicken Shop,1,New Delhi,"45, Outram Line, Kingway Camp, GTB Nagar, New Delhi",GTB Nagar,"GTB Nagar, New Delhi",77.2051662,28.700431,"Raw Meats, Fast Food",300,Indian Rupees(Rs.),No,No,1,3,4
387,Ovenstory Pizza,1,Gurgaon,"Sector 23, Gurgaon",Sector 23,"Sector 23, Gurgaon",77.0540643,28.5041784,"Pizza, Fast Food",500,Indian Rupees(Rs.),No,Yes,2,3.3,15
388,Flavours,1,Gurgaon,"Shop number 59, HUDA Market, Sector 46, Gurgaon, Sector 45, Gurgaon",Sector 45,"Sector 45, Gurgaon",77.0587691,28.4345889,"North Indian, Chinese, Mughlai",600,Indian Rupees(Rs.),No,No,2,3.3,74
389,Lassilo,1,Noida,"D 51, Sector 105, Near Sector 110, Noida",Sector 110,"Sector 110, Noida",0,0,Fast Food,200,Indian Rupees(Rs.),No,No,1,0,0
390,Punjab Grill,214,Abu Dhabi,"Venetian Village, Ritz Carlton Abu Dhabi, Grand Canal, Al Maqtaa, Abu Dhabi","Venetian Village, Al Maqtaa","Venetian Village, Al Maqtaa, Abu Dhabi",54.4872137,24.4106148,"Indian, North Indian",330,Emirati Diram(AED),Yes,No,4,4.9,216
391,Royale Bakers,1,Noida,"Opposite Pathway School, Sector 104, Near Sector 110, Noida",Sector 110,"Sector 110, Noida",77.386751,28.533164,"Bakery, Fast Food, Desserts",350,Indian Rupees(Rs.),No,Yes,1,0,0
392,Batlivala & Khanabhoy,1,Coimbatore,"122, 4th Floor, Appusamy Layout, Red Fields, Race Course, Coimbatore",Race Course,"Race Course, Coimbatore",76.98624135,11.00175265,"Parsi, North Indian",1200,Indian Rupees(Rs.),No,No,3,4.2,40
393,Chinois,1,New Delhi,"27, Main Market, Lodhi Colony, New Delhi",Lodhi Colony,"Lodhi Colony, New Delhi",77.22361319,28.58455646,Asian,1500,Indian Rupees(Rs.),Yes,No,3,3,7
394,B Two,1,New Delhi,"B-2, 107, DDA Flat, Safdarjung Enclave, Safdarjung, New Delhi",Safdarjung,"Safdarjung, New Delhi",77.19174787,28.5624946,Chinese,400,Indian Rupees(Rs.),No,No,1,3,7
395,Oriental Kitchen Express,1,Gurgaon,"1, Housing Board Colony, Near Jyoti Hospital, Sector 15, Gurgaon",Sector 15,"Sector 15, Gurgaon",77.0367474,28.4577727,"Chinese, Thai",450,Indian Rupees(Rs.),No,Yes,1,3.3,14
396,Aryan Family's Delight,1,Allahabad,"Ground Floor, Vinayak City Centre, Sardar Patel Marg, Civil Lines, Allahabad",Civil Lines,"Civil Lines, Allahabad",81.834502,25.454648,"North Indian, South Indian, Fast Food",500,Indian Rupees(Rs.),No,No,3,3.4,57
397,7 Barrel Brew Pub,1,Gurgaon,"242A & 242B, 1st & 2nd Floor, DLF Mega Mall, DLF Phase 1, Gurgaon","DLF Mega Mall, DLF Phase 1","DLF Mega Mall, DLF Phase 1, Gurgaon",77.09335439,28.4761926,"North Indian, Continental, Chinese, Japanese, Italian, Thai",2000,Indian Rupees(Rs.),Yes,Yes,4,3.9,490
398,Zest Bar and Lounge,1,Noida,"K-24, Near HSBC Bank, Sector 18, Noida",Sector 18,"Sector 18, Noida",77.32295919,28.57206302,"Finger Food, North Indian, Chinese",1000,Indian Rupees(Rs.),Yes,No,3,3.4,223
399,Republic's @ Dhaba,1,Noida,"KT-08, Food Court, Steller IT Park, Sector 62, Noida",Sector 62,"Sector 62, Noida",77.3625455,28.6127995,"North Indian, Street Food",750,Indian Rupees(Rs.),No,No,2,2.9,56
400,Ambarsaria by Gourmet Affaire's,1,New Delhi,"Ground Floor, JMD Kohinoor Mall, Greater Kailash (GK) 2, New Delhi","JMD Kohinoor Mall, Greater Kailash","JMD Kohinoor Mall, Greater Kailash, New Delhi",77.2383021,28.5364178,Fast Food,400,Indian Rupees(Rs.),No,Yes,1,3.1,43
401,Shri Bala Ji Rasoi,1,New Delhi,"Near Authority, Main Road, Mayur Vihar Phase 1, New Delhi",Mayur Vihar Phase 1,"Mayur Vihar Phase 1, New Delhi",77.296163,28.6051709,North Indian,200,Indian Rupees(Rs.),No,No,1,0,0
402,Khan Chacha,1,New Delhi,"Palate of Delhi, Dhaula Kuan Metro Station, Chanakyapuri, New Delhi","Palate of Delhi, Chanakyapuri","Palate of Delhi, Chanakyapuri, New Delhi",77.1622219,28.5921535,"Mughlai, North Indian",650,Indian Rupees(Rs.),No,No,2,0,1
403,JAL - A Jungle Restaurant,1,Indore,"Behind Pushp Kunj Hospital, Khandwa Road, Bhawar Kuan, Indore",Bhawar Kuan,"Bhawar Kuan, Indore",75.88199135,22.65184685,"North Indian, Chinese",850,Indian Rupees(Rs.),No,No,3,4.1,100
404,Punjabi's Veg Grill,1,New Delhi,"441/8, Jheel Khuranja, Main Road, Geeta Colony, New Delhi",Geeta Colony,"Geeta Colony, New Delhi",77.27389522,28.65782692,North Indian,350,Indian Rupees(Rs.),No,No,1,3.2,8
405,Cafe' Wow,1,Noida,"Food Court, 3rd Floor, The Great India Palace Mall, Sector 38, Noida","The Great India Place, Sector 38","The Great India Place, Sector 38, Noida",77.3255998,28.5675141,Fast Food,200,Indian Rupees(Rs.),No,No,1,0,0
406,The Food Truck Cafe,1,New Delhi,"Plot 69, Near HDFC Bank ATM, Satyaniketan, New Delhi",Satyaniketan,"Satyaniketan, New Delhi",77.1679732,28.5881341,Cafe,800,Indian Rupees(Rs.),No,No,2,3.9,35
407,Cent Percent The Pastry Shop,1,New Delhi,"16-B, Hudson Lane, Kingsway Camp, Delhi University-GTB Nagar, New Delhi",Delhi University-GTB Nagar,"Delhi University-GTB Nagar, New Delhi",77.2044468,28.6963995,"Bakery, Fast Food",250,Indian Rupees(Rs.),No,Yes,1,3.6,258
408,Farmhaus Burger,216,Augusta,"1204 Broad St, Augusta, GA 30901",Augusta,"Augusta, Augusta",-81.973006,33.477444,"American, Burger",25,Dollar($),No,No,2,3.9,201
409,Barbeque Nation,1,Bhubaneshwar,"Plot 12-13/557, 3rd Floor, Mauza Samantapuri,Gajapati Nagar, Chandrasekharpur, Bhubaneshwar",Chandrasekharpur,"Chandrasekharpur, Bhubaneshwar",0,0,"Mediterranean, Asian, Continental, North Indian, Arabian",1200,Indian Rupees(Rs.),No,No,3,4.6,154
410,Shree Rathnam,1,New Delhi,"251/3, Post Office Block, Krishna Nagar, New Delhi",Krishna Nagar,"Krishna Nagar, New Delhi",77.2814156,28.6602389,"South Indian, North Indian, Chinese",800,Indian Rupees(Rs.),No,Yes,2,2.9,66
411,Turta Home Cafe,208,Ankara,"Mutlukent Mahallesi, 1944. Cadde, 1948. Sokak, No 15, íˆankaya, Ankara",íˆayyolu,"íˆayyolu, Ankara",32.70474167,39.89479444,"Cafe, Desserts",35,Turkish Lira(TL),No,No,2,4.3,126
412,Chez Jerome - Q Cafe,1,New Delhi,"344/3, 4th Floor, Lado Sarai, New Delhi",Lado Sarai,"Lado Sarai, New Delhi",0,0,"Cafe, French",1500,Indian Rupees(Rs.),Yes,No,3,0,1
413,The Breakfast Bite,1,Gurgaon,"Near Delhi Public School, Sector 45, Gurgaon",Sector 45,"Sector 45, Gurgaon",0,0,"North Indian, South Indian",300,Indian Rupees(Rs.),No,No,1,0,1
414,Club London,1,New Delhi,"3-4, Ground Floor, Southern Park Mall, District Centre, Saket, New Delhi","Southern Park Mall, Saket","Southern Park Mall, Saket, New Delhi",77.2192708,28.5279802,"North Indian, Chinese, Finger Food",2500,Indian Rupees(Rs.),Yes,No,4,3.3,179
415,Desi Vibes,1,Noida,"G-50, 1st Floor, Sector 18, Noida",Sector 18,"Sector 18, Noida",77.32425638,28.5694916,"North Indian, Mughlai",1400,Indian Rupees(Rs.),No,Yes,3,3.8,2019
416,Cake2you,1,Gurgaon,"522/5, Near Jyoti Hospital, Sector 15, Gurgaon",Sector 15,"Sector 15, Gurgaon",77.0371148,28.4579792,"Bakery, Desserts",400,Indian Rupees(Rs.),No,No,1,3,4
417,Kamat Restaurant,1,Vizag,"Beach Road, Near Santhi Ashram, Lawsons Bay, Visakhapatnam",Lawsons Bay,"Lawsons Bay, Vizag",83.33809722,17.73480556,"Andhra, North Indian, Chinese, Seafood, Biryani",600,Indian Rupees(Rs.),No,No,2,3.6,154
418,Crust Bistro,1,Gurgaon,"Food Court, HUDA City Center Metro Station, Sector 29, Gurgaon","Huda City Centre Metro Station, Sector 29, Gurgaon","Huda City Centre Metro Station, Sector 29, Gurgaon, Gurgaon",77.07272552,28.45938349,"Italian, Pizza",800,Indian Rupees(Rs.),No,Yes,2,3.6,144
419,Ram Chinese Food,1,New Delhi,"BB-80/A, West Shalimar Bagh, Shalimar Bagh, New Delhi",Shalimar Bagh,"Shalimar Bagh, New Delhi",77.1569645,28.7152123,"Chinese, Fast Food",400,Indian Rupees(Rs.),No,No,1,3.1,23
420,Taste Drive,1,New Delhi,"Pacific Mall, Near Kids Zone, Tagore Garden, New Delhi",Tagore Garden,"Tagore Garden, New Delhi",77.1069062,28.6418012,Fast Food,250,Indian Rupees(Rs.),No,No,1,3.4,21
421,Subway,1,Gurgaon,"SG-102, Ground Floor, DLF Galleria, DLF Phase 4, Gurgaon","DLF Galleria, DLF Phase 4","DLF Galleria, DLF Phase 4, Gurgaon",77.0814039,28.4676142,"American, Fast Food, Salad, Healthy Food",500,Indian Rupees(Rs.),No,No,2,2.5,125
422,Man Vs Food The Kitchen,1,New Delhi,"Shop 125, Defence Colony Flyover Complex, Defence Colony, New Delhi",Defence Colony,"Defence Colony, New Delhi",77.238347,28.576813,"North Indian, Mughlai",600,Indian Rupees(Rs.),No,Yes,2,3.1,9
423,Cafe Coffee Day,1,New Delhi,"Ground Floor, Star City Mall, Mayur Vihar Phase 1, New Delhi","Star City Mall, Mayur Vihar Phase 1","Star City Mall, Mayur Vihar Phase 1, New Delhi",77.2961448,28.5925115,Cafe,450,Indian Rupees(Rs.),No,No,1,2.7,29
424,Cafe Coffee Day - The Lounge,1,New Delhi,"B6/6, Commercial Complex, Safdarjung Enclave, New Delhi, Safdarjung, New Delhi",Safdarjung,"Safdarjung, New Delhi",77.19591,28.559014,Cafe,750,Indian Rupees(Rs.),No,No,2,2.5,32
425,JUGAAD JN.,1,Bhubaneshwar,"KIIT Road, Opposite SBI, Patia, Bhubaneshwar",Patia,"Patia, Bhubaneshwar",85.82225987,20.35348061,"North Indian, Rajasthani",300,Indian Rupees(Rs.),No,No,1,4.1,199
426,Sushiya Express,1,New Delhi,"A-92 C, 2nd Floor, New Friends Colony, New Delhi",New Friends Colony,"New Friends Colony, New Delhi",77.268211,28.561936,"Sushi, Asian",800,Indian Rupees(Rs.),No,Yes,2,3.5,30
427,1990's,1,New Delhi,"KG-1/423, Ground Floor, Vikaspuri, New Delhi",Vikaspuri,"Vikaspuri, New Delhi",77.0796054,28.6384984,"North Indian, Mughlai",250,Indian Rupees(Rs.),No,No,1,3.3,15
428,Chili's,1,Pune,"UG 49, Phoenix Market City, Nagar Road, Viman Nagar, Pune","Phoenix Market City, Viman Nagar","Phoenix Market City, Viman Nagar, Pune",73.9166191,18.5624502,"Mexican, American, Tex-Mex",1800,Indian Rupees(Rs.),Yes,Yes,3,4.5,1439
429,Baskin Robbins,1,New Delhi,"GG 2/10A, Vikaspuri, New Delhi",Vikaspuri,"Vikaspuri, New Delhi",77.079298,28.6425617,Ice Cream,300,Indian Rupees(Rs.),No,No,1,3.5,36
430,Essen Foods,1,Noida,"Shop 20, Ashirwad Complex, Opposite PathwaySchool, Sector 104, Near Sector 110, Noida",Sector 110,"Sector 110, Noida",77.36632314,28.53927854,"North Indian, Chinese, Mughlai",500,Indian Rupees(Rs.),No,No,2,0,0
431,Aggarwal Sweet Centre,1,New Delhi,"1675, Chhawla Bus Stand, Mittal Market, Najafgarh, New Delhi",Najafgarh,"Najafgarh, New Delhi",76.9854417,28.6096384,Mithai,200,Indian Rupees(Rs.),No,No,1,0,1
432,Sea Inn - Raju Gaari Dhaba,1,Vizag,"Beach Road, Opposite Cyclone Shelter ,   Visakhapatnam, Rushikonda, Vizag",Rushikonda,"Rushikonda, Vizag",83.38285833,17.78386944,"Biryani, Andhra",450,Indian Rupees(Rs.),No,No,2,4,169
433,Domino's Pizza,1,New Delhi,"G 24, 1st Floor, South Extension 1, New Delhi",South Extension 1,"South Extension 1, New Delhi",77.2204886,28.5694195,"Pizza, Fast Food",700,Indian Rupees(Rs.),No,No,2,2.5,58
434,Vaishno Rasoi,1,New Delhi,"5, Swarg Ashram, Parmanand Chowk Red Light, Kingsway Camp, Delhi University-GTB Nagar, New Delhi",Delhi University-GTB Nagar,"Delhi University-GTB Nagar, New Delhi",77.2045418,28.710327,North Indian,350,Indian Rupees(Rs.),No,No,1,0,3
435,Food Passengers,1,Noida,"E-214, First Floor, Sector 63, Noida",Sector 63,"Sector 63, Noida",0,0,North Indian,250,Indian Rupees(Rs.),No,No,1,0,0
436,Cafe Onion Rings,1,Noida,"Near HP Petrol Pump, Dadri Road, Sector 44, Noida",Sector 44,"Sector 44, Noida",77.3382907,28.56470841,"North Indian, Chinese, Fast Food",500,Indian Rupees(Rs.),No,No,2,2.9,52
437,Subway,1,New Delhi,"G-10/A, Ground Floor, Vasant Square Mall, Vasant Kunj, New Delhi","Vasant Square Mall, Vasant Kunj","Vasant Square Mall, Vasant Kunj, New Delhi",77.1561628,28.5250677,"American, Fast Food, Salad, Healthy Food",500,Indian Rupees(Rs.),No,Yes,2,2.5,131
438,K2 Multi Cuisine Restaurant,1,New Delhi,"A-44, 1st Floor, Lajpat Nagar 2, New Delhi",Lajpat Nagar 2,"Lajpat Nagar 2, New Delhi",77.2373271,28.5717193,"North Indian, Mughlai, Nepalese, Tibetan, Korean",1000,Indian Rupees(Rs.),Yes,No,3,0,2
439,Magadh and Awadh,1,Gurgaon,"SCO 396, Near IFFCO Chowk Metro Station, Sector 29, Gurgaon",Sector 29,"Sector 29, Gurgaon",77.0716014,28.4723195,"Bihari, Lucknowi, North Indian",1200,Indian Rupees(Rs.),Yes,Yes,3,4,226
440,Foodies,1,New Delhi,"Shop 21, Paryavaran Complex, Near Vidya Sagar Hospital, IGNOU Road, Sainik Farms, New Delhi",Sainik Farms,"Sainik Farms, New Delhi",77.20467545,28.51453131,North Indian,350,Indian Rupees(Rs.),No,No,1,0,0
441,New Kovilakam Restaurant,1,New Delhi,"A 70/3, Gali 5, Madhu Vihar, IP Extension, New Delhi",IP Extension,"IP Extension, New Delhi",77.30450468,28.63570449,"Kerala, South Indian",400,Indian Rupees(Rs.),No,No,1,0,1
442,Shudh Vaishno Hotel,1,New Delhi,"T 32-34, Super Market, Near Milan Cinema, New Moti Nagar, Karampura, New Delhi",Karampura,"Karampura, New Delhi",77.14636557,28.66223077,North Indian,450,Indian Rupees(Rs.),No,Yes,1,3.4,44
443,17 Degrees,1,Patna,"6th Floor, P&M Mall, Patliputra Colony, Patna",Patliputra Colony,"Patliputra Colony, Patna",85.106207,25.634209,"North Indian, Chinese, Continental, Italian",1200,Indian Rupees(Rs.),No,No,3,3.5,151
444,Hook Up,1,New Delhi,"Shop 14, Pentamed Hospital Complex, LSC Derawal Nagar, Gujranwala Town, New Delhi",Gujranwala Town,"Gujranwala Town, New Delhi",77.1916947,28.6991568,"North Indian, Continental",500,Indian Rupees(Rs.),No,No,2,0,1
445,Bakers Delight - The Atrium,1,Faridabad,"The Atrium Hotel, Shooting Range Road, Suraj Kund, Faridabad","The Atrium, Suraj Kund","The Atrium, Suraj Kund, Faridabad",77.283011,28.489796,"Bakery, Desserts",700,Indian Rupees(Rs.),No,No,2,3,10
446,Kerala Cafe,1,New Delhi,"DDA Market, Ber Sarai, Aruna Ashif Ali Marg, JNU, New Delhi",JNU,"JNU, New Delhi",77.18089364,28.54979385,"North Indian, South Indian",150,Indian Rupees(Rs.),No,No,1,2.3,44
447,Sunita Dhaba,1,New Delhi,"National Highway 8, Near Shanti Place Hotel, Mahipalpur, New Delhi",Mahipalpur,"Mahipalpur, New Delhi",77.1279227,28.549416,North Indian,250,Indian Rupees(Rs.),No,No,1,0,0
448,Sanjha Chula,1,Gurgaon,"Opposite Tirath Ram Hospital, Basai Road, Old Railway Road, Gurgaon",Old Railway Road,"Old Railway Road, Gurgaon",77.0200512,28.4570545,North Indian,700,Indian Rupees(Rs.),No,No,2,3,6
449,Hong Kong Express,1,New Delhi,"Shop 18-19, Sector B, Pocket 10, DDA Market, Vasant Kunj, New Delhi",Vasant Kunj,"Vasant Kunj, New Delhi",77.153852,28.5313867,"Chinese, Thai",800,Indian Rupees(Rs.),No,Yes,2,3.7,164
450,Sethi Restaurant,1,New Delhi,"3077, D.B. Gupta Road, Paharganj, New Delhi",Paharganj,"Paharganj, New Delhi",77.21133667,28.64541167,"North Indian, Mughlai",800,Indian Rupees(Rs.),No,No,2,2.8,8
451,Mr. Brown,1,New Delhi,"Plot 10, LSC Rajdhani Enclave Market, Preet Vihar, New Delhi",Preet Vihar,"Preet Vihar, New Delhi",77.2960691,28.642482,"Bakery, Desserts, Fast Food",500,Indian Rupees(Rs.),No,Yes,2,3.7,50
452,Biryani Bot,1,Faridabad,"HUDA Market, Sector 37, Faridabad",Sector 37,"Sector 37, Faridabad",77.311746,28.4805778,Biryani,200,Indian Rupees(Rs.),No,No,1,0,0
453,Tandoori Zaaika,1,New Delhi,"Main Road, Aaya Nagar, Near Honda Showroom, MG Road, New Delhi",MG Road,"MG Road, New Delhi",77.1280511,28.4785954,North Indian,500,Indian Rupees(Rs.),No,No,2,3,4
454,La Chocoallure,1,New Delhi,"D-23, Defence Colony, New Delhi",Defence Colony,"Defence Colony, New Delhi",77.23718248,28.57345367,Desserts,250,Indian Rupees(Rs.),No,No,1,2.9,7
455,Shama Chicken Corner,1,Noida,"RN 1, B Block Market, Sector 62, Noida",Sector 62,"Sector 62, Noida",77.3707092,28.6182302,Mughlai,500,Indian Rupees(Rs.),No,No,2,0,2
456,Uncle Bakery,1,New Delhi,"196, Pocket F, Dilshad Garden, New Delhi",Dilshad Garden,"Dilshad Garden, New Delhi",77.3175002,28.6804166,"Bakery, Fast Food",100,Indian Rupees(Rs.),No,No,1,3.1,15
457,Twenty Four Seven,1,New Delhi,"23, Opposite Hansraj Hostel, Kamla Nagar, New Delhi",Kamla Nagar,"Kamla Nagar, New Delhi",77.2080453,28.6786891,"Fast Food, North Indian",300,Indian Rupees(Rs.),No,No,1,3.3,53
458,Bake A Wish,1,New Delhi,"J 12/14, Rajouri Garden, New Delhi",Rajouri Garden,"Rajouri Garden, New Delhi",77.1189181,28.6401722,"Bakery, Fast Food",400,Indian Rupees(Rs.),No,Yes,1,3.7,43
459,Hunger's Hut,1,Noida,"Shop 1, Swarn Nagri Market, Greater Noida, Noida",Greater Noida,"Greater Noida, Noida",77.5296715,28.4634272,"North Indian, Mughlai",350,Indian Rupees(Rs.),No,Yes,1,0,3
460,Tamba,214,Abu Dhabi,"6th Floor, World Trade Centre Mall, Al Markaziya, Abu Dhabi","World Trade Center Mall, Al Markaziya","World Trade Center Mall, Al Markaziya, Abu Dhabi",54.358147,24.488161,Indian,500,Emirati Diram(AED),Yes,No,4,4.7,201
461,Bhatia Sweets,1,New Delhi,"2, DDA Market 2, Near Balco Apartment, IP Extension, New Delhi",IP Extension,"IP Extension, New Delhi",77.305996,28.630711,"Mithai, South Indian, Street Food",150,Indian Rupees(Rs.),No,No,1,3.5,97
462,Bombay Vada Pav,1,New Delhi,"Shop 30/1, Double Storey, Ashok Nagar, Near Tilak Nagar Metro Station, Jail Road, New Delhi",Jail Road,"Jail Road, New Delhi",77.0969926,28.6360464,Street Food,150,Indian Rupees(Rs.),No,No,1,2.8,41
463,Black Pepper,1,Noida,"Shop 12, F Block, VDS Market, Sector 51, Noida",Sector 51,"Sector 51, Noida",0,0,"North Indian, Chinese, Mughlai",500,Indian Rupees(Rs.),No,No,2,0,2
464,Big Biryani,1,Noida,"Opposite HCL, Sector 127, Noida",Sector 127,"Sector 127, Noida",77.3323947,28.5493919,"Biryani, Mughlai",300,Indian Rupees(Rs.),No,No,1,0,1
465,Aapni Dhani,1,New Delhi,"14/1 A, Deep Cinema, Central Market, Ashok Vihar Phase 1, New Delhi",Ashok Vihar Phase 1,"Ashok Vihar Phase 1, New Delhi",77.1731452,28.6927118,"North Indian, Street Food",200,Indian Rupees(Rs.),No,No,1,2.8,23
466,Kumar Sweet House,1,New Delhi,"5, Gandhi Market, Minto Road, Daryaganj, New Delhi",Daryaganj,"Daryaganj, New Delhi",77.2444219,28.6452519,"Mithai, Street Food",150,Indian Rupees(Rs.),No,No,1,0,1
467,Kulcha King,1,Faridabad,"Opposite Omaxe Forest, Main Surajkund Road, Anangpur Chowk, Sector 41-42, Near Sector 43, Faridabad",Sector 43,"Sector 43, Faridabad",77.2845595,28.4601453,North Indian,100,Indian Rupees(Rs.),No,No,1,0,2
